stop_lat,wheelchair_boarding,stop_code,stop_lon,stop_timezone,stop_url,parent_station,stop_desc,stop_name,location_type,stop_id,zone_id
36.140864,,21ADIXSN,-86.800365,,,,21ST AV S & DIXIE PL,21ST AVE S & DIXIE PL SB,0,21ADIXSN,
36.151248,,12ADIVSN,-86.784419,,,,,12TH AVE S & DIVISION ST SB,0,12ADIVSN,
36.187775,,DOMMETEN,-86.798861,,,,,DOMINICAN DR & METRO CENTER BLVD EB,0,DOMMETEN,
36.187722,,PORPONSF,-86.729639,,,,,PORTER RD & PONTOTOC AVE SB,0,PORPONSF,
36.136868,,WED17AEN,-86.795931,,,,WEDGEWOOD & 17 AVE,WEDGEWOOD AVE & 17TH AVE S EB,0,WED17AEN,
36.108232,,POWPOWNM,-86.765569,,,,,POWELL AVE & POWELL PL NB,0,POWPOWNM,
36.171678,,WOO5SEN,-86.764955,,,,,WOODLAND ST & S 5TH ST EB,0,WOO5SEN,
36.192437,,COUDOAWM,-86.834602,,,,,COUNTY HOSPITAL RD & DOAK AVE WB,0,COUDOAWM,
36.19142,,COUDOAWN,-86.83582,,,,,COUNTY HOSPITAL RD & DOAK AVE WB,0,COUDOAWN,
36.11292,,MURKNIEN,-86.689366,,,,MURFREESBORO & MCGAVOCK,MURFREESBORO PIKE & KNIGHT VALLEY D,0,MURKNIEN,
36.257412,,GXIMADLB,-86.714068,,,,,MADISON STATION INBOUND,0,GXIMADLB,
36.177012,,16SWOOSN,-86.741988,,,,N 16TH ST & PORTER RD,16TH ST & WOODLAND ST SB,0,16SWOOSN,
36.088293,,MXINASHB,-86.649284,,,,,NASHBORO STATION INBOUND,0,MXINASHB,
36.182274,,23ASEINF,-86.814331,,,,23RD AV N & SEIFRIED ST,23RD AVE N & SEIFRIED ST NB,0,23ASEINF,
35.861601,,AGEXPO,-86.826882,,,,4205 LONG LN,WILLIAMSON CO AG EXPO,0,AGEXPO,
36.148364,,ROYPEREM,-86.674225,,,,ROYAL PKWY & RACHEL PKWY,ROYAL PKWY & PERIMETER PL EB,0,ROYPEREM,
36.196843,,DICLUCNF,-86.771548,,,,DICKERSON PK & LUCILE ST,DICKERSON PIKE & LUCILE ST NB,0,DICLUCNF,
36.172867,,FAT19SEN,-86.737132,,,,,FATHERLAND ST & S 19TH ST EB,0,FAT19SEN,
36.163373,,LEBEASWN,-86.699707,,,,,LEBANON PIKE & EASTHAVEN TOWNHOMES,0,LEBEASWN,
36.189506,,LEBBONWM,-86.627722,,,,LEBANON & HICKORY HILL,LEBANON PIKE & BONNABROOK DR SB,0,LEBBONWM,
36.149347,,BRO20AWM,-86.798393,,,,BROADWAY & 20 AVE,BROADWAY AVE & 20TH AVE S WB,0,BRO20AWM,
36.157036,,BRO11AEN,-86.786292,,,,BROADWAY & 11TH AV N,BROADWAY AVE & 11TH AVE N EB,0,BRO11AEN,
36.321196,,JOEL,-86.867084,,,,,JOELTON FAMILY DOLLAR P & R,0,JOEL,
36.130578,,WESLAUEF,-86.836706,,,,,WEST END AVE & LAUDERDALE RD EB,0,WESLAUEF,
36.20057,,GALBURNN,-86.740034,,,,,GALLATIN PK & BURCHWOOD AV,0,GALBURNN,
36.130886,,WESWHIEN,-86.835761,,,,WEST END & WHITLAND,WEST END AVE & MOCKING BIRD RD EB,0,WESWHIEN,
35.849366,,BURWALWN,-86.392944,,,,,BURTON ST & WALNUT ST WB,0,BURWALWN,
36.167896,,LEBOLDWN,-86.663903,,,,,LEBANON PIKE & OLD LEBANON RD WB,0,LEBOLDWN,
36.176552,,23AOSANN,-86.813598,,,,23RD AV N & OSAGE,23RD AVE N & OSAGE ST,0,23AOSANN,
36.14472,,ELMMASEN,-86.711248,,,,ELM HILL PK & MASSMAN DR,ELMHILL PK & MASSMAN DR EB,0,ELMMASEN,
36.157437,,HERPEAEN,-86.770645,,,,,HERMITAGE AVE & PEABODY ST EB,0,HERPEAEN,
36.171135,,JEF12AEN,-86.79961,,,,JEFFERSON & 12 AVE,JEFFERSON ST & 12TH AVE N EB,0,JEF12AEN,
36.127614,,12ALINNN,-86.789082,,,,12TH AV S & LINDEN AV,12TH AVE S & LINDEN AVE NB,0,12ALINNN,
36.110077,,THOWINWF,-86.73481,,,,,THOMPSON LN & WINGATE AVE WB,0,THOWINWF,
36.078213,,HARMILEM,-86.730132,,,,HARDING PL & SHADESCREST DR,HARDING PIKE & MILNER DR EB,0,HARMILEM,
36.077845,,HARMILEF,-86.731238,,,,,HARDING PIKE & MILNER DR EB,0,HARMILEF,
36.125078,,FRAINVNF,-86.776593,,,,US HWY 31 & FRANKLIN PIKE,FRANKLIN PIKE & INVERNESS AVE NB,0,FRAINVNF,
36.168816,,JEFI40EF,-86.811235,,,,JEFFERSON & I40,JEFFERSON ST & I-40 EB,0,JEFI40EF,
36.074995,,H70OLDWN,-86.919547,,,,,HWY 70 & OLD HICKORY BLVD WB,0,H70OLDWN,
36.210728,,JONFLANN,-86.755202,,,,FLAMINGO & SLAYDEN,JONES AVE  & FLAMINGO DR NB,0,JONFLANN,
36.168009,,JEFI40EN,-86.817577,,,,JEFFERSON & I40 W,JEFFERSON ST & I-40 EB,0,JEFI40EN,
36.219861,,TUCKINNN,-86.826493,,,,,TUCKER RD & KINGS LN NB,0,TUCKINNN,
36.224016,,GXIINGF,-86.725718,,,,,INGLEWOOD STATION INBOUND,0,GXIINGF,
36.163749,,39AALASN,-86.833864,,,,,39TH AVE N & ALAMEDA ST SB,0,39AALASN,
36.19301,,LEBJUASN,-86.62348,,,,LEBANON PK & JUAREZ DR,LEBANON PIKE & JUAREZ DR NB,0,LEBJUASN,
36.12221,,FRAHORNN,-86.775663,,,,FRANKLIN PK & HORNER AV,FRANKLIN PIKE & HORNER AVE NB,0,FRAHORNN,
36.101951,,HARHAREN,-86.870292,,,,HARDING RD & HARDING PLACE,HARDING PIKE & HARDING PL EB,0,HARHAREN,
36.155586,,51AGEONF,-86.848664,,,,,51ST AVE N & GEORGIA AVE NB,0,51AGEONF,
36.199854,,BUEKIRNF,-86.82531,,,,,BUENA VISTA PK & KIRK AVE NB,0,BUEKIRNF,
36.094437,,MURFRANN,-86.653178,,,,MURFREESBORO & OLD MURFREESBORO,MURFREESBORO PIKE & FRANKLIN LIMEST,0,MURFRANN,
36.184954,,PORTILSF,-86.731504,,,,,PORTER RD & TILLMAN LN SB,0,PORTILSF,
36.198447,,DICMARNM,-86.770684,,,,DICKERSON PK & FERN AV,DICKERSON PIKE & MARIE MB,0,DICMARNM,
35.84836,,NHIEBUNF,-86.383141,,,,,N HIGHLAND AVE & E BURTON ST NB,0,NHIEBUNF,
36.235556,,MOOWILNF,-86.77501,,,,,MOOREWOOD DR & WILMOTH RD NB,0,MOOWILNF,
36.107739,,MURDELEN,-86.677328,,,,MURFREESBORO & DELL PARKWAY,MURFREESBORO PIKE & DELL PKWY EB,0,MURDELEN,
36.194317,,MCGSTOSN,-86.673155,,,,,MCGAVOCK PIKE & STONES RIVER RD SB,0,MCGSTOSN,
36.149462,,CHALAFSN,-86.762447,,,,,CHARLES E DAVIS BLVD & LAFAYETTE ST SB,0,CHALAFSN,
36.165893,,4AVDEASN,-86.780414,,,,4TH AVE N & DEADERICK ST,4TH AVE & DEADERICK ST SB,0,4AVDEASN,
36.102964,,MURTOWEF,-86.666093,,,,US HWY 41 & MURFREESBORO PIKE,MURFREESBORO PIKE & TOWN PARK DR EB,0,MURTOWEF,
36.241059,,CHENEENF,-86.67336,,,,,CHEYENNE BLVD & NEELY'S BEND RD NB,0,CHENEENF,
36.273885,,GALANDNF,-86.709877,,,,N GALLATIN PK,N GALLATIN PIKE & ANDERSON LN NB,0,GALANDNF,
36.109606,,THOSELEN,-86.732269,,,,,THOMPSON LN & SELENA DR EB,0,THOSELEN,
36.210825,,SLAOAKE,-86.753878,,,,SLAYDEN & OAKWOOD,SLAYDON DR & OAKWOOD AVE EB,0,SLAOAKE,
36.187591,,COUHYDWM,-86.839847,,,,COUNTY HOSPITAL & HYDES FERRY,COUNTY HOSPITAL RD & HYES FERRY RD,0,COUHYDWM,
36.188382,,COUHYDWF,-86.838941,,,,COUNTY HOSPITAL RD & HYDES FERRY RD,COUNTY HOSPITAL RD & HYES FERRY RD WB,0,COUHYDWF,
36.24323,,CHERAISN,-86.767688,,,,CHESAPEAKE DR & RAIN WOOD,CHESAPEAKE DR & RAINWOOD DR SB,0,CHERAISN,
36.202481,,BAPHAYN,-86.788702,,,,,BAPTIST WORLD CENTER DR. & HAYNES MEADE CIR NB,0,BAPHAYN,
36.121215,,MXIGLENG,-86.703814,,,,,GLENGARRY STATION INBOUND,0,MXIGLENG,
36.183683,,MERHANNN,-86.768456,,,,,MERIDIAN ST & HANCOCK ST NB,0,MERHANNN,
36.175539,,16SHOLSN,-86.742213,,,,,S 16TH ST & HOLLY ST SB,0,16SHOLSN,
36.262388,,OHRIOVSW,-86.680929,,,,,OLD HICKORY BLVD PAST RIO VISTA WB,0,OHRIOVSW,
36.261113,,GALMAPNN,-86.712488,,,,,GALLATIN PIKE & MAPLE ST NB,0,GALMAPNN,
36.162409,,HER22AWN,-86.810284,,,,HERMAN & 22 AVE,HERMAN ST & 22ND AVE N WB,0,HER22AWN,
36.161028,,TEN50AWN,-86.847693,,,,,TENNESSEE AVE & 50TH AVE WB,0,TEN50AWN,
36.244805,,CHEWOOSN,-86.767814,,,,CHESAPEAKE DR & WOOD TRAIL,CHESAPEAKE DR & WOOD TRL SB,0,CHEWOOSN,
36.143158,,MURFESWF,-86.745103,,,,,MURFREESBORO PIKE & FESSLERS LN WB,0,MURFESWF,
36.117135,,ETHOLDNN,-86.719031,,,,,E THOMPSON LN & OLD GLENROSE NB,0,ETHOLDNN,
36.168654,,JAM6AWN,-86.785174,,,,5 AVE & JAMES ROBERTSON,JAMES ROBERTSON PKWY & 6TH AVE N WB,0,JAM6AWN,
36.132223,,WESCAREN,-86.831601,,,,,WEST END AVE & CARDEN AVE EB,0,WESCAREN,
36.106063,,NXIMORTN,-86.742599,,,,US HWY 31 ALT & MORTON AVE,MORTON STATION INBOUND,0,NXIMORTN,
35.849241,,BURWALEF,-86.393012,,,,,BURTON ST & WALNUT ST EB,0,BURWALEF,
36.107799,,MURDELWN,-86.676468,,,,,MURFREESBORO PIKE & DELL PKWY WB,0,MURDELWN,
36.055847,,NOLAPRNN,-86.715456,,,,US HWY 31 ALT & NOLENSVILLE PIKE,NOLENSVILLE PIKE & APRIL LN NB,0,NOLAPRNN,
36.159527,,LEBLISWN,-86.703951,,,,US HWY 70 & LEBANON PIKE,LEBANON PIKE & LISA LN  WB,0,LEBLISWN,
36.192917,,PORMCKNN,-86.726639,,,,PORTER RD & STRAIGHTWAY AV,PORTER RD & MCKENNEL DR NB,0,PORMCKNN,
36.162511,,4AVCOMSN,-86.778241,,,,4TH AV N & COMMERCE ST,4TH AVE N & COMMERCE ST SB,0,4AVCOMSN,
36.144475,,MXOELMHI,-86.749604,,,,,ELM HILL STATION OUTBOUND,0,MXOELMHI,
35.992096,0,MURNOLNN,-86.527094,,,,,MURFREESBORO PIKE & NOLAN DR NB,0,MURNOLNN,
35.982791,,MURWASNN,-86.519191,,,,,MURFREESBORO PIKE & WASHINGTON ST N,0,MURWASNN,
36.15788,,51AILLNF,-86.848785,,,,ILLINOIS AV & 49TH AV N,51ST AVE N & ILLINOIS AVE NB,0,51AILLNF,
36.120943,,GRAKIRSN,-86.790663,,,,12TH AV S & KIRKWOOD AV,GRANNY WHITE PIKE & KIRKWOOD AVE SB,0,GRAKIRSN,
36.055495,,MXIZELID,-86.642172,,,,,ZELIDA STATION INBOUND,0,MXIZELID,
36.210386,,WHILUZSN,-86.796541,,,,,WHITES CREEK PIKE & LUZON ST SB,0,WHILUZSN,
36.080962,,HARWAUWN,-86.751565,,,,,HARDING PL & WAUFORD DR WB,0,HARWAUWN,
36.186758,,GALPETSN,-86.747165,,,,,GALLATIN AVE & PETWAY AVE,0,GALPETSN,
36.16867,,JAM5AEN,-86.78388,,,,JAMES ROBERTSON PW & 5TH AV N,JAMES ROBERTSON PKWY & 5TH AVE N EB,0,JAM5AEN,
36.111314,,FRATHOSN,-86.773528,,,,,FRANKLIN PK & THOMPSON LN SB,0,FRATHOSN,
36.139263,,WHIKENNN,-86.857334,,,,WHITEBRIDGE RD & KENDALL DR,WHITE BRIDGE PIKE & KENDALL DR NB,0,WHIKENNN,
36.162301,,HER22AEN,-86.810251,,,,,HERMAN ST & 22ND AVE EB,0,HER22AEN,
36.142803,,MURFESEN,-86.744655,,,,MURFREESBORO & FESSLERS LANE,MURFREESBORO PIKE & FESSLERS LN EB,0,MURFESEN,
36.153222,,20ACHUNN,-86.800614,,,,20TH AV N & CHURCH ST,20TH AVE N & CHURCH ST NB,0,20ACHUNN,
36.231512,,EWIBRIWN,-86.78049,,,,,EWING DR & BRICK CHURCH PIKE WB,0,EWIBRIWN,
36.076143,,EDMNOLEN,-86.727693,,,,,EDMONDOSN PIKE & NOLENSVILLE PIKE E,0,EDMNOLEN,
36.225139,,BOYFARNN,-86.826484,,,,BOYD DRIVE & FARMVIEW DR,BOYD DR & FARMVIEW DR NB,0,BOYFARNN,
36.148932,,CHALELEM,-86.863642,,,,CHARLOTTE PK & OCEOLA AV,CHARLOTTE PIKE & LELLYETT ST EB,0,CHALELEM,
36.169688,,2AGAYNM,-86.779909,,,,2ND AVE N & GAY ST,2ND AVE & GAY ST NB,0,2AGAYNM,
36.05434,,MURMTVSN,-86.618866,,,,,MURFREESBORO PIKE & MT VIEW RD SB,0,MURMTVSN,
36.13998,,21APIESN,-86.800488,,,,21ST AV S & PIERCE AV,21ST AVE S & PIERCE AVE SB,0,21APIESN,
36.193301,,ELIHYDNF,-86.840101,,,,,ELIZABETH RD & HYDES FERRY RD NB,0,ELIHYDNF,
36.080494,,HARJONWN,-86.717779,,,,,HARDING PIKE & JONQUIL DR WB,0,HARJONWN,
36.229387,,EWIDICEN,-86.759713,,,,EWING DR & DICKERSON PK,EWING DR & DICKERSON PIKE EB,0,EWIDICEN,
36.191732,,PONATHE2,-86.802666,,,,,PONDER PL & ATHENS WAY EB,0,PONATHE2,
36.196528,,DICLUCSN,-86.771895,,,,DICKERSON PK & LUCILE ST,DICKERSON PIKE & LUCILE ST SB,0,DICLUCSN,
36.14316,,EDG15AWN,-86.790598,,,,,EDGEHILL AVE & 15TH AVE S WB,0,EDG15AWN,
36.168866,,LEBFAIEN,-86.683426,,,,,LEBANON PIKE & FAIRWAY DR EB,0,LEBFAIEN,
36.118756,,GRAFERNN,-86.791055,,,,GRANNY WHITE PK & FERGUSON AV,GRANNY WHITE PIKE & FERGUSON AVE NB,0,GRAFERNN,
36.196752,,BAPWEASN,-86.782971,,,,BAPTIST WORLD CTR DR & WEAKLEY,BAPTIST WORLD CENTER  DR & WEAKLEY AVE SB,0,BAPWEASN,
36.170033,,SHE8SWN,-86.756138,,,,,SHELBY AVE & S 8TH ST WB,0,SHE8SWN,
36.199077,,LISGATNN,-86.762262,,,,,LISCHEY AVE & GATEWOOD AVE NB,0,LISGATNN,
36.166358,,MCC5_3,-86.78148,,,,UNNAMED & 5TH AVE N,CENTRAL 5TH AVE - BAY 3,0,MCC5_3,
36.166259,,MCC5_2,-86.781861,,,,,CENTRAL 5TH AVE - BAY 2,0,MCC5_2,
36.166215,,MCC5_1,-86.781682,,,,MUSIC CITY CENTRAL 5TH CIR & 5TH AVE N,CENTRAL 5TH AVE - BAY 1,0,MCC5_1,
36.121755,,BRALIGSF,-86.765561,,,,BRANSFORD AVE & BERRY RD,BRANSFORD AVE & LIGON DR SB,0,BRALIGSF,
36.166501,,MCC5_6,-86.781233,,,,UNNAMED & 5TH AVE N,CENTRAL 5TH AVE - BAY 6,0,MCC5_6,
36.166456,,MCC5_5,-86.781188,,,,MUSIC CITY CENTRAL 5TH CIR & 5TH AVE N,CENTRAL 5TH AVE - BAY 5,0,MCC5_5,
36.166402,,MCC5_4,-86.78148,,,,UNNAMED & 5TH AVE N,CENTRAL 5TH AVE - BAY 4,0,MCC5_4,
36.166706,,MCC5_9,-86.781693,,,,UNNAMED & 5TH AVE N,CENTRAL 5TH AVE - BAY 9,0,MCC5_9,
36.166768,,MCC5_8,-86.781424,,,,UNNAMED & 5TH AVE N,CENTRAL 5TH AVE - BAY 8,0,MCC5_8,
36.016652,,MURVETWN,-86.561482,,,,,MURFREESBORO PIKE & VETERANS MEMORI,0,MURVETWN,
36.160663,,DRDJOJSN,-86.802047,,,,555 DR DB TODD JR BLVD & JO JOHNSTON AVE,DR DB TODD JR BLVD & JO JOHNSTON AV,0,DRDJOJSN,
36.157777,,CLIINDEN,-86.829643,,,,,CLIFTON AVE & INDIANA AVE EB,0,CLIINDEN,
36.194374,,PORBRASN,-86.725677,,,,,PORTER RD & BRANCH ST SB,0,PORBRASN,
36.201715,,LEBTYLNF,-86.617208,,,,LEBANON PK & TYLER DR,LEBANON PIKE & TYLER DR  NB,0,LEBTYLNF,
36.193904,,BAPWILEN,-86.778438,,,,BAPTIST WORLD DR & WILLIS,BAPTIST WORLD CENTER DR & WILLIS ST EB,0,BAPWILEN,
36.150628,,WES21AWN,-86.801112,,,,WEST END AV & 21ST AV N,WEST END AVE & 21ST AVE S WB,0,WES21AWN,
36.170853,,5SRUSSN,-86.764262,,,,5 ST & RUSSELL,S 5TH ST & RUSSELL ST SB,0,5SRUSSN,
36.072026,,EDMBLAWF,-86.733038,,,,EDMONDSON PIKE & BLACKMAN RD,EDMONDSON PK & BLACKMAN RD WB,0,EDMBLAWF,
36.140711,,ANNPREEF,-86.882851,,,,ANNEX AV & OLD HICKORY BV,ANNEX AVE & PREMIER DR EB,0,ANNPREEF,
36.19918,,GREATHIM,-86.799771,,,,,GREAT CIRCLE RD & ATHENS WAY EB,0,GREATHIM,
36.144012,,31AHEDNF,-86.816447,,,,,31ST AVE N & HEDRICK ST NB,0,31AHEDNF,
36.052658,,HICHICNN,-86.654986,,,,PARKING LOT & MURFREESBORO PIKE,HICKORY HOLLOW PL & HICKORY HOLLOW,0,HICHICNN,
36.076501,,EDMNOLWF,-86.727201,,,,,EDMONDSON PIKE & NOLENSVILLE PIKE W,0,EDMNOLWF,
36.143945,,8AOLYSN,-86.778978,,,,8TH AVENUE S & OLYMPIC,8TH AVE S & OLYMPIC ST SB,0,8AOLYSN,
36.168406,,SHE6SEM,-86.75982,,,,,SHELBY AVE & S 6TH ST EB,0,SHE6SEM,
35.97591,,MURENDNF,-86.512904,,,,,MURFREESBORO PIKE & ENON SPRINGS RD,0,MURENDNF,
36.241159,,DOVEAGEN,-86.767982,,,,,DOVERSIDE DR & EAGLEWOOD LN EB,0,DOVEAGEN,
36.116368,,MURMCGEN,-86.697547,,,,,MURFREESBORO PIKE & MCGAVOCK PIKE E,0,MURMCGEN,
36.059958,,BELHHIWF,-86.640854,,,,,BELL RD & HICKORY HIGHLANDS DR WB,0,BELHHIWF,
36.121929,,ETHLAWSF,-86.717859,,,,,E THOMPSON LN & LAWNDALE DR SB,0,ETHLAWSF,
36.081356,,WALLINNN,-86.702265,,,,,WALLACE RD & LINBAR DR NB,0,WALLINNN,
36.116009,,MURMCGEF,-86.696787,,,,,MURFREESBORO PIKE & MCGAVOCK PIKE W,0,MURMCGEF,
36.194193,,DICLIGSF,-86.772489,,,,,DICKERSON PIKE & LIGON AVE SB,0,DICLIGSF,
36.144897,,8AARCNN,-86.778803,,,,8TH AVENUE & ARCHER,8TH AVE S & ARCHER ST NB,0,8AARCNN,
36.140994,,MXOFOSTE,-86.739126,,,,,FOSTER STATION OUTBOUND,0,MXOFOSTE,
36.139736,,31AWELWF,-86.813305,,,,,31ST AVE & WELLINGTON AVE WB,0,31AWELWF,
36.174742,,8AMADNM,-86.792238,,,,ROSA L PARKS BLVD,ROSA PARKS BLVD & MONROE ST NB,0,8AMADNM,
36.153273,,ELMERMEN,-86.686932,,,,ELM HILL PK & ERMAC DR,ELM HILL PIKE & ERMAC DR EB,0,ELMERMEN,
36.166859,,33AJOHSN,-86.826911,,,,33RD AV N & JOHN A MERRITT BV,33RD AVE N & JOHN A MERRITT BLVD SB,0,33AJOHSN,
36.145043,,CHE4AWN,-86.766554,,,,CHESTNUT ST & 4TH AV S,CHESTNUT ST & 4TH AVE S WB,0,CHE4AWN,
36.244212,,CHEAPANN,-86.670689,,,,CHEYENNE BV & APACHE LN,CHEYENNE BLVD & APACHE LN,0,CHEAPANN,
36.216897,,CRECRESN,-86.846225,,,,,CREEKWOOD & CREEKLAND CT SB,0,CRECRESN,
36.152666,,GREFAIN,-86.75629,,,,,GREEN ST & FAIRFIELD AVE NB,0,GREFAIN,
36.219096,,ROWCROWN,-86.817692,,,,,ROWAN DR & CROUCH DR WB,0,ROWCROWN,
36.190017,,LEBHCKNM,-86.62654,,,,LEBANON PK & JACKSON'S COURT YARD,LEBANON PIKE & HICKORY HILL LN NB,0,LEBHCKNM,
36.213291,,MCGPLESF,-86.687777,,,,,MCGAVOCK PIKE & PLEASANT GREEN RD S,0,MCGPLESF,
36.116566,,MURMCGWN,-86.697203,,,,,MURFREESBORO PIKE & MCGAVOCK PIKE W,0,MURMCGWN,
36.114061,,MURMCGWM,-86.691217,,,,,MURFREESBORO PIKE  & MCGAVOCK PIKE,0,MURMCGWM,
36.116201,,BRAWIRSF,-86.766448,,,,BRANSFORD AVE & E IRIS DR,BRANSFORD AVE & WEST IRIS DR SB,0,BRAWIRSF,
36.139709,,31AWELEN,-86.813339,,,,,31ST AVE & WELLINGTON AVE EB,0,31AWELEN,
36.177707,,DELCHESN,-86.795766,,,,,DELTA AVE & CHEATHAM PL SB,0,DELCHESN,
36.117036,,ETHOLDSF,-86.719289,,,,,E THOMPSON LN & OLD GLENROSE SB,0,ETHOLDSF,
36.118399,,ETHWIMSF,-86.718843,,,,,E THOMPSON LN & WIMPOLE DR SB,0,ETHWIMSF,
36.144846,,CHE4AEN,-86.766756,,,,CHESTNUT ST & 4TH AV S,CHESTNUT ST & 4TH AVE  S EB,0,CHE4AEN,
36.136561,,WHISTOSN,-86.85819,,,,,WHITE BRIDGE PIKE & STONEWAY TRL SB,0,WHISTOSN,
36.182314,,1SDICSN,-86.774085,,,,N 1ST ST & DICKERSON PK RAMP,N 1ST ST & DICKERSON PIKE RAMP SB,0,1SDICSN,
36.213948,,WHIPIESN,-86.800167,,,,WHITES CREEK PK & CLAYMILLE BV,WHITES CREEK PIKE & PIERPOINT DR SB,0,WHIPIESN,
36.157903,,11APORSF,-86.786781,,,,303 11TH AVE & PORTER ST,11TH AVE & PORTER ST SB,0,11APORSF,
36.161582,,11ACHASF,-86.790293,,,,361 11TH AVE,11TH AVE & CHARLOTTE AVE SB,0,11ACHASF,
36.15909,,LEBQUIEN,-86.704467,,,,US HWY 70 & LEBANON PIKE,LEBANON PIKE & QUINN CR EB,0,LEBQUIEN,
36.188265,,ATHDOMSN,-86.800339,,,,,ATHENS WAY & DOMINICAN DR SB,0,ATHDOMSN,
36.165679,,5AVCHANN,-86.781727,,,,5TH AVE N & CHARLOTTE AVE,5TH AVE & CHARLOTTE AVE NB,0,5AVCHANN,
36.130007,,WHIFOUNM,-86.855262,,,,WHITEBRIDGE RD & FOUNTAIN PL,WHITE BRIDGE PIKE & FOUNTAIN PL NB,0,WHIFOUNM,
36.186484,,GALPETNN,-86.747091,,,,,GALLATIN AVE & PETWAY AVE NB,0,GALPETNN,
36.132334,,8AVDOUNF,-86.779053,,,,8TH AVENUE & BENTON,8TH AVE S & DOUGLAS AVE NB,0,8AVDOUNF,
36.248611,,GXODUEWF,-86.719893,,,,,DUE WEST STATION OUTBOUND,0,GXODUEWF,
36.147202,,WES25AWN,-86.808104,,,,WEST END AV & 25TH AV S,WEST END AVE & 25TH AVE S WB,0,WES25AWN,
36.193233,,LISRICNM,-86.763275,,,,LISCHEY & DOUGLAS,LISCHEY AVE & RICHARDSON AVE NB,0,LISRICNM,
36.24593,,BRICHUSF,-86.779508,,,,,BRICK CHURCH PIKE & CHESAPEAK DR SB,0,BRICHUSF,
36.16641,,HER14AWN,-86.79825,,,,HERMAN ST & 14TH AV N,HERMAN ST & 14TH AVE N WB,0,HER14AWN,
36.246422,,BRIBRIWN,-86.771292,,,,,BRICKMONT DR & BRICKMONT CT WB,0,BRIBRIWN,
35.854567,,NWBMEDNN,-86.40248,,,,,NW BROAD ST & MEDICAL CENTER PKWY NB,0,NWBMEDNN,
36.08968,,H70CAREF,-86.890848,,,,,HWY 70 S & CARNAVON PKWY EB,0,H70CAREF,
36.125676,,12ACARNN,-86.789251,,,,12TH AV S & CARUTHERS AV,12TH AVE S & CARUTHERS AVE NB,0,12ACARNN,
36.160899,,MXIMCCTR,-86.77444,,,,150 2ND AVE & SHELBY STREET BRG,CONVENTION CENTER STATION INBOUND,0,MXIMCCTR,
36.207693,,BUETAINF,-86.819796,,,,,BUENA VISTA PK & TAIGANS CT NB,0,BUETAINF,
36.206181,,LEBMONNF,-86.61293,,,,LEBANON PK & MONACO DR,LEBANON PIKE & MONACO DR NB,0,LEBMONNF,
36.249416,,NEELAREF,-86.686334,,,,,NEELYS BEND RD & LARKIN SPRINGS RD,0,NEELAREF,
36.167583,,JOH31AWN,-86.824377,,,,JOHN A MERRITT BV & 31ST AV N,JOHN A MERRITT BLVD & 31ST AVE N WB,0,JOH31AWN,
36.162389,,44AWALSM,-86.840223,,,,,44TH AVE & WALTER S DAVIS BLVD SB,0,44AWALSM,
36.163543,,ALA39ANN,-86.833819,,,,ALAMEDA ST & 39TH AV N,ALAMEDA ST & 39TH AVE N,0,ALA39ANN,
36.173458,,FAT16SWN,-86.742382,,,,,FATHERLAND ST & S 16TH ST NB,0,FAT16SWN,
36.153806,,LEBLEBWM,-86.718351,,,,LEBANON & SPENCE,LEBANON PIKE & LEBANON PIKE CIR WB,0,LEBLEBWM,
36.097942,,NXIVERTS,-86.7385,,,,NOLENSVILLE & VERITAS,VERITAS STATION INBOUND,0,NXIVERTS,
36.198892,,LISGATSF,-86.762388,,,,,LISCHEY AVE & GATEWOOD AVE SB,0,LISGATSF,
36.132893,,WESLEOEN,-86.829728,,,,,WEST END AVE  & LEONARD AVE EB,0,WESLEOEN,
36.13746,,WED21AEF,-86.800216,,,,,WEDGEWOOD AVE & 21ST AVE EB,0,WED21AEF,
36.148265,,CHAEASWN,-86.867331,,,,CHARLOTTE PK & BALMY AV,CHARLOTTE AVE & EASTBORO DR WB,0,CHAEASWN,
36.113969,,GRACLINN,-86.792175,,,,GRANNY WHITE PK & BATTLEFIELD DR,GRANNY WHITE PIKE & CLIFTON LN NB,0,GRACLINN,
36.164616,,4AARCADE,-86.779573,,,,4TH AVE N & ARCADE,4TH AVE & ARCADE SB,0,4AARCADE,
36.178744,,LEBDANSM,-86.64485,,,,LEBANON & WELLINGTON SQ,LEBANON PIKE & DANYACREST DR SB,0,LEBDANSM,
36.124631,,FRAINVSF,-86.776671,,,,US HWY 31 & FRANKLIN PIKE,FRANKLIN PIKE & INVERNESS AVE SB,0,FRAINVSF,
36.084294,,TROLYNSF,-86.756595,,,,,TROUSDALE DR & LYNN DR SB,0,TROLYNSF,
36.134333,,WED8AVWN,-86.778933,,,,,WEDGEWOOD AVE & 8TH AVE S WB,0,WED8AVWN,
36.176659,,MAIMCFWN,-86.755462,,,,,MAIN ST & MCFERRIN AVE WB,0,MAIMCFWN,
36.121304,,FRAKIRNN,-86.775344,,,,,FRANKLIN PIKE & KIRKWOOD AVE NB,0,FRAKIRNN,
36.126086,,NXOGLNRS,-86.752832,,,,NOLENSVILLE & GLENROSE AV,GLENROSE STATION OUTBOUND,0,NXOGLNRS,
36.211723,,DICDONSN,-86.765295,,,,,DICKERSON PK & DONALD ST SB,0,DICDONSN,
36.149009,,WHALAFNF,-86.762358,,,,CHARLES E DAVIS BLVD & J C NAPIER CT,WHARF AVE & LAFAYETTE ST NB,0,WHALAFNF,
36.23727,,VAIQUASF,-86.770339,,,,,VAILVIEW DR & QUALYNN DR SB,0,VAIQUASF,
36.173965,,1SOLDNN,-86.773974,,,,,N 1ST ST & OLDHAM ST NB,0,1SOLDNN,
36.151674,,WESLYLEN,-86.798491,,,,,WEST END AVE & LYLE AVE EB,0,WESLYLEN,
36.059175,,NOLTUSSN,-86.716445,,,,US HWY 31 ALT & US HWY 41 ALT,NOLENSVILLE PIKE & TUSCULUM RD SB,0,NOLTUSSN,
36.175608,,1SOLDNM,-86.774322,,,,N 1ST ST & MAIN ST,N 1ST ST & OLDHAM ST NB,0,1SOLDNM,
36.209244,,HAYEVENN,-86.834539,,,,,HAYNES PARK DR & EVE CR NB,0,HAYEVENN,
36.256036,,NEEARGEN,-86.713586,,,,,NEELY'S BEND RD & ARGLE AVE EB,0,NEEARGEN,
36.332904,,KHLSHV,-86.624374,,,,,KOHLS - HENDERSONVILLE,0,KHLSHV,
36.261064,,SANLONNN,-86.678101,,,,,SANDHURST DR & LONDON BRIDGE RD NB,0,SANLONNN,
36.144372,,ELMMASEM,-86.714676,,,,,ELM HILL PIKE & MASSMAN DR EB,0,ELMMASEM,
36.140829,,8AVERSN,-86.778706,,,,8 AVENUE S & VERNON,8TH AVE S & VERNON SB,0,8AVERSN,
36.254815,,NEENEEEF,-86.702031,,,,,NEELY'S BEND RD & NEELY'S CHASE DR EB,0,NEENEEEF,
36.134158,,WED8AVEN,-86.779306,,,,,WEDEWOOD AVE & 8TH AVE S EB,0,WED8AVEN,
36.148669,,12AHAWSN,-86.785136,,,,12TH AV S & HAWKINS ST,12TH AVE S & HAWKINS ST SB,0,12AHAWSN,
36.21099,,FAICLAEN,-86.83911,,,,FAIRVIEW DR & CLARKSVILLE PK,FAIRVIEW DR & CLARKSVILLE PIKE EB,0,FAICLAEN,
36.18635,,25THYDNM,-86.816998,,,,,25TH AVE N & HYDE ST NORTHBOUND MID,0,25THYDNM,
36.180114,,DBTBUCSN,-86.811099,,,,,DR DB TODD BLVD & BUCHANAN ST SB,0,DBTBUCSN,
36.151871,,LAF4AWN,-86.770982,,,,LAFAYETTE & 4 AVE,LAFAYETTE ST & 4TH AVE S WB,0,LAF4AWN,
36.129661,,CXODVDSN,-86.903165,,,,6988 CHARLOTTE PIKE & DAVIDSON DR,DAVIDSON STATION OUTBOUND,0,CXODVDSN,
36.164545,,2AVCHUNN,-86.776836,,,,2ND AV N & CHURCH ST,2ND AVE N & CHURCH ST NB,0,2AVCHUNN,
36.170646,,SHE15SWF,-86.744695,,,,1000 SHELBY AVE,SHELBY AVE & S 15TH ST WB,0,SHE15SWF,
36.142972,,12AEDGSN,-86.787031,,,,12TH AV S & EDGEHILL AV,12TH AVE S & EDGEHILL AVE SB,0,12AEDGSN,
36.143403,,CHEMAREN,-86.769849,,,,,CHESTNUT ST & MARTIN ST EB,0,CHEMAREN,
36.165677,,39AJOHSN,-86.834337,,,,39TH AV N & JOHN L DRIVER BV,39TH AVE N & JOHN DRIVER BLVD SB,0,39AJOHSN,
36.137599,,8AALLSN,-86.778773,,,,8TH AVENUE & ALLOWAY,8TH AVE S & ALLOWAY ST SB,0,8AALLSN,
36.162353,,44AALBNM,-86.840033,,,,44TH AV N & UNKNOWN AL,44TH AVE N & ALBION ST NB,0,44AALBNM,
36.267283,,DELCUMSN,-86.703557,,,,,DELAWARE AVE & CUMBERLAND AVE SB,0,DELCUMSN,
36.200118,,ANDRACNN,-86.607921,,,,ANDREW JACKSON PW & RACHEL DONELSON PA,ANDREW JACKSON PKWY & RACHEL DONELSON PASS NB,0,ANDRACNN,
36.138954,,MURBLAWF,-86.732227,,,,107 MAPLE AVE & MURFREESBORO PIKE,MURFREESBORO PIKE & BLANTON AVE WB,0,MURBLAWF,
36.210243,,WHILUZNF,-86.796294,,,,US HWY 431 & LUZON ST,WHITES CREEK PIKE & LUZON ST NB,0,WHILUZNF,
36.169057,,JEF21AWF,-86.810097,,,,,JEFFERSON ST & 21ST AVE N WB,0,JEF21AWF,
36.13681,,21ABELNN,-86.800801,,,,21ST AV S & BELCOURT AV,21ST AVE S & BELCOURT AVE NB,0,21ABELNN,
36.069631,,NOLTAYWN,-86.720726,,,,,NOLENSVILLE PIKE & TAYLOR RD WB,0,NOLTAYWN,
36.141776,,CHE8AWN,-86.778352,,,,CHESTNUT ST & 8TH AV S,CHESTNUT ST & 8TH AVE S WB,0,CHE8AWN,
36.118934,,GRAFERSN,-86.791122,,,,GRANNY WHITE PK & FERGUSON AV,GRANNY WHITE PIKE & FERGUSON AVE SB,0,GRAFERSN,
36.076992,,HARSHAEN,-86.73681,,,,STATE HWY 255 & HARDING PL,HARDING PL & SHADECREST DR EB,0,HARSHAEN,
36.156464,,NXIPBODY,-86.771599,,,,2ND AV S & PEABODY ST,PEABODY STATION INBOUND,0,NXIPBODY,
36.207107,,GALMAYSN,-86.736105,,,,,GALLATIN PIKE & MAYNOR AVE SB,0,GALMAYSN,
36.060214,,EDMELLNN,-86.740925,,,,EDMONDSON PIKE & ELLINGTON CIR,EDMONDOSN PK & ELLINGTON CIRCLE NB,0,EDMELLNN,
36.194021,,DICDOUNN,-86.772334,,,,DICKERSON PK & DOUGLAS AV,DICKERSON PIKE & DOUGLAS AVE NB,0,DICDOUNN,
36.200568,,BAPSEMNN,-86.786623,,,,BAPTIST WORLD DR & SEMINARY ST,BAPTIST WORLD CENTER DR & SEMINARY ST NB,0,BAPSEMNN,
36.151559,,CXO53AVE,-86.852455,,,,5326 CHARLOTTE AVE & MORROW RD,53RD AVE STATION OUTBOUND,0,CXO53AVE,
36.134477,,MXIPLUSP,-86.722961,,,,,PLUS PARK STATION INBOUND,0,MXIPLUSP,
36.154489,,CHA26AEF,-86.81517,,,,CHARLOTTE AV & 26TH AV N,CHARLOTTE AVE & 26TH AVE F EB,0,CHA26AEF,
36.230305,,EWIHILWN,-86.770607,,,,,EWING DR & HILL HURST DR WB,0,EWIHILWN,
36.227897,,BOYBUENN,-86.827407,,,,BUENAVIEW BLVD & TRUMPET CIR,BOYD DR & BUENAVIEW BLVD NB,0,BOYBUENN,
36.169608,,JEFDBTWN,-86.806359,,,,,JEFFERSON ST & DR DB TODD JR BLVD W,0,JEFDBTWN,
36.252256,,NEERANEN,-86.694108,,,,NEELYS BEND RD & RANDY RD,NEELEY'S BEND RD & RANDY RD,0,NEERANEN,
36.13499,,WESELMEN,-86.823993,,,,,WEST END AVE & ELMINGTON AVE EB,0,WESELMEN,
36.230145,,EWIHILEN,-86.770902,,,,,EWING DR & HILLHURST DR EB,0,EWIHILEN,
36.152293,,CXISYLPA,-86.837289,,,,CHARLOTTE & 42 AVE,42ND AVE/SYLVAN PARK STATION INBOUND,0,CXISYLPA,
36.140259,,21APIENM,-86.800294,,,,21ST AV S & DIXIE PL,21ST AVE S & PIERCE AVE NB,0,21APIENM,
36.154509,,12ADEMNN,-86.786056,,,,12TH AV S & DEMONBREUN ST,12TH AVE S & DEMONBREUN ST NB,0,12ADEMNN,
36.135279,,WESELMWF,-86.823873,,,,,WEST END AVE & ELMINGTON AVE WB,0,WESELMWF,
36.08944,,HAREZEEN,-86.688593,,,,,HARDING PL & EZELL PK EB,0,HAREZEEN,
36.197274,,GALCARNF,-86.741814,,,,,GALLATIN PK & CAROLYN AVE NB,0,GALCARNF,
36.156975,,8ADEMSN,-86.780929,,,,191 8TH AVE S & DEMONBREUN ST,8TH AVE S & DEMONBREUN ST SB,0,8ADEMSN,
36.232628,,CRESKYNF,-86.769705,,,,,CREEKWOOD & SKYLINE APTS NB,0,CRESKYNF,
36.061245,,NOLMCMNN,-86.716482,,,,US HWY 31 ALT & MCMURRAY DR,NOLENSVILLE PIKE & MCMURRAY DR NB,0,NOLMCMNN,
36.148269,,CHABALEF,-86.866926,,,,,CHARLOTTE AVE & BALMY AVE EB,0,CHABALEF,
36.153846,,LEBSPEWN,-86.721279,,,,,LEBANON PIKE & SPENCE LN WB,0,LEBSPEWN,
36.15445,,BRO16AWN,-86.79279,,,,BROADWAY & 16TH AV N,BROADWAY AVE & 16TH AVE S WB,0,BRO16AWN,
36.160591,,BAT32AWN,-86.824027,,,,,BATAVIA ST & 32ND AVE N WB,0,BAT32AWN,
36.182615,,EASCHAEN,-86.735933,,,,1812 EASTLAND AVE & CHAPEL AVE,EASTLAND AVE & CHAPEL AVE EB,0,EASCHAEN,
36.143076,,WES31AEM,-86.814774,,,,WEST END AVE & 30TH AVE S,WEST END AVE & 31ST AVE S EB,0,WES31AEM,
36.246237,,BRICHEEM,-86.769869,,,,BRICKMONT DR & BRICKMONT CT,BRICKMONT CT & CHESAPEAKE DR EB,0,BRICHEEM,
36.163551,,21AHERNN,-86.808379,,,,21ST AV N & HERMOSA ST,21ST AVE N & HERMOSA ST NB,0,21AHERNN,
36.176207,,DBTWHESN,-86.809511,,,,,DR DB TODD BLVD & WHELESS ST SB,0,DBTWHESN,
36.088533,,GRSM#1S,-86.748727,,,,,GRASSMERE EOL,0,GRSM#1S,
36.205552,,JONTRINF,-86.75752,,,,,JONES AVE & TRINITY LN NB,0,JONTRINF,
36.172894,,5AVJACNN,-86.786404,,,,,5TH AVE & JACKSON ST NB,0,5AVJACNN,
36.14883,,ELMAPPNN,-86.703435,,,,ELM HILL PK & APPLETON DR,ELM HILL PIKE & APPLETON DR NB,0,ELMAPPNN,
36.190616,,LISEVANN,-86.763738,,,,,LISCHEY AVE & EVANSTON AVE NB,0,LISEVANN,
36.112451,,THOWESWF,-86.768579,,,,,THOMPSON LN & WEST IRIS DR WB,0,THOWESWF,
36.24887,,GXIDUESN,-86.719915,,,,,DUE WEST STATION INBOUND,0,GXIDUESN,
36.074755,,SAWPLANM,-86.945953,,,,,SAWYER BROWN RD & PLANTATION DR NB,0,SAWPLANM,
36.17165,,2ASTOSM,-86.781297,,,,2ND AV N & STOCKYARD ST,2ND AVE N & STOCKYARD ST SB,0,2ASTOSM,
36.135034,,NXOFRGND,-86.759818,,,,4TH AV S & WALSH RD,FAIRGROUNDS STATION OUTBOUND,0,NXOFRGND,
36.174658,,COC17AWN,-86.806598,,,,COCKRILL ST & 17TH N,COCKRILL ST & 17TH AVE WB,0,COC17AWN,
36.136225,,WED12AWN,-86.788401,,,,,WEDGEWOOD AVE & 12TH AVE S WB,0,WED12AWN,
36.154836,,HERDRIWN,-86.758268,,,,US HWY 70 & DRIFTWOOD ST,HERMITAGE AVE & DRIFTWOOD ST WB,0,HERDRIWN,
36.211178,,OPRYHWAR,-86.697676,,,,PRIVATE & 10TH AV N,OPRYLAND HOTEL WARDROBE BLDG,0,OPRYHWAR,
36.141776,,31AWESSF,-86.815005,,,,,31ST AVE & WEST END AVE SB,0,31AWESSF,
36.154803,,CHA26AWN,-86.814662,,,,CHARLOTTE AV & 26TH AV N,CHARLOTTE AVE & 26TH AVE N WB,0,CHA26AWN,
36.18348,,23ACLANN,-86.81422,,,,23RD AV N & CLARKSVILLE PK,23RD AVE N & CLARKSVILLE PIKE NB,0,23ACLANN,
36.203677,,BAPMEANM,-86.789335,,,,BAPTIST WORLD DR & ROGER AVE,BAPTIST WORLD CENTER DR & MEADE AVE NB,0,BAPMEANM,
36.162355,,LEBLYNNM,-86.700627,,,,,LEBANON PIKE & LYNMEADE DR NB,0,LEBLYNNM,
36.161079,,LEBLYNNN,-86.701874,,,,LEBANON RD & US HWY 70,LEBANON PIKE & LYNMEADE DR NB,0,LEBLYNNN,
36.269054,,GALWILNN,-86.710519,,,,N GALLATIN PK & WILEY ST,GALLATIN PIKE & WILEY ST NB,0,GALWILNN,
36.138301,,WES440EM,-86.820055,,,,WEST END AVE & MURPHY RD,WEST END AVE & I-440 RAMP EB,0,WES440EM,
36.137534,,WHIKNONN,-86.857726,,,,WHITE BRIDGE PK & KNOB RD,WHITE BRIDGE PIKE & KNOB RD NB,0,WHIKNONN,
36.188345,,26ADOWNN,-86.818317,,,,,26TH AVE & DOWLAN ST NB,0,26ADOWNN,
36.113886,,MURPINEM,-86.691696,,,,,MURFREESBORO PIKE & PINEWAY DR EB,0,MURPINEM,
36.167458,,JOH32AEN,-86.824578,,,,JOHN A MERRITT BLVD & 31ST AVE N,JOHN A MERRITT BLVD & 32ND AVE N EB,0,JOH32AEN,
36.177882,,11AJANSN,-86.802933,,,,11TH AV N & JANE,11TH AVE N & JANE ST SB,0,11AJANSN,
36.077233,,HARSHAWF,-86.737478,,,,,HARDING PL & SHADESCEST DR WB,0,HARSHAWF,
36.164867,,33AALASN,-86.826485,,,,33RD AV N & ALAMEDA ST,33RD AVE N & ALAMEDA ST SB,0,33AALASN,
36.136059,,WED12AEF,-86.78829,,,,,WEDGEWOOD AVE & 12TH AVE S EB,0,WED12AEF,
36.050377,,MXOMTVIE,-86.648455,,,,,MOUNT VIEW STATION OUTBOUND,0,MXOMTVIE,
36.106285,,ABBHILEM,-86.818123,,,,,ABBOTT MARTIN RD & HILLSBORO CIRCLE E,0,ABBHILEM,
36.153637,,LEBSPEEF,-86.721111,,,,,LEBANON PIKE & SPENCE LN EB,0,LEBSPEEF,
36.153217,,LEBSPEEM,-86.72465,,,,,LEBANON PIKE & SPENCE LN EB,0,LEBSPEEM,
36.266404,,MYADUPNN,-86.689977,,,,,MYATT DR & N DUPONT AVE NB,0,MYADUPNN,
36.142159,,CHEFOREM,-86.774589,,,,,CHESTNUT ST & FORT NEGLEY BLVD EB,0,CHEFOREM,
36.142249,,CHEFOREN,-86.775425,,,,CHESTNUT ST & FORT NEGLEY BV,CHESTNUT ST & FORT NEGLEY BLVD EB,0,CHEFOREN,
36.131533,,BRABENNN,-86.768317,,,,,BRANSFORD AVE & BENTON AVE NB,0,BRABENNN,
36.187036,,LEBCENWF,-86.63138,,,,LEBANON & CENTRAL PIKE,LEBANON PIKE & CENTRAL PK WB,0,LEBCENWF,
36.23806,,GXIWALTF,-86.724213,,,,,WALTON STATION INBOUND,0,GXIWALTF,
36.191349,,VANGREWM,-86.795593,,,,VANTAGE & FRENCH LANDING,VANTAGE WAY & GREAT CIRCLE RD WB,0,VANGREWM,
36.049706,,DOLL,-86.713997,,,,,DOLLAR GENERAL PARK-N-RIDE,0,DOLL,
36.193328,,ELIHYDSN,-86.840202,,,,,ELIZABETH RD & HYDES FERRY RD SB,0,ELIHYDSN,
36.16232,,CXONGULC,-86.790405,,,,CHARLOTTE & 11TH AV,11TH AVE / N GULCH STATION OUTBOUND,0,CXONGULC,
36.092753,,H70VAUWN,-86.885343,,,,HIGHWAY 70 S & VAUGHNS GAP RD,HWY 70 S & VAUGHNS GAP RD WB,0,H70VAUWN,
36.183487,,GXIEASTN,-86.748559,,,,,EASTLAND STATION INBOUND,0,GXIEASTN,
36.137997,,BLA24AEN,-86.805062,,,,,BLAKEMORE AVE & 24TH AVE S EB,0,BLA24AEN,
36.222813,,REVROWWN,-86.809262,,,,,REVELS DR & ROWAN DR WB,0,REVROWWN,
36.192671,,HAMRIVNM,-86.831987,,,,,HAMILTON RD S & RIVER DR NB,0,HAMRIVNM,
36.078866,,H70COLEF,-86.952313,,,,,HWY 70 S & COLEY DAVIS RD EB,0,H70COLEF,
36.167822,,5AVGAYNN,-86.783106,,,,5TH AV N & GAY ST,5TH AVE N & GAY ST NB,0,5AVGAYNN,
36.134441,,CXINVLWS,-86.888456,,,,6803 CHARLOTTE PIKE & HILLWOOD DR W,NASHVILLE WEST STATION INBOUND,0,CXINVLWS,
36.077513,,STAPLES,-86.947762,,,,HWY 70 S & MALL ENTRANCE,HWY 70 S & STAPLES PARK-N-RIDE,0,STAPLES,
36.073839,,H70COLEM,-86.934652,,,,HWY 70 S & DOLCE JEANNE,HWY 70 S & COLICE JEANNE RD EB,0,H70COLEM,
36.163323,,ALB33AWN,-86.825945,,,,,ALBION ST & 33RD AVE N WB,0,ALB33AWN,
36.147536,,LAFLEWWN,-86.758344,,,,162 LAFAYETTE ST & LEWIS ST,LAFAYETTE ST & LEWIS ST WB,0,LAFLEWWN,
36.209983,,GXOGREEN,-86.733697,,,,GALLATIN PIKE & SHELTON AVE,GREENFIELD STATION OUTBOUND,0,GXOGREEN,
36.135945,,12AWEDNN,-86.788702,,,,12TH AV S & WEDGEWOOD AV,12TH AVE S & WEDGEWOOD AVE NB,0,12AWEDNN,
36.16033,,1AVDEMSN,-86.773258,,,,1ST AV S & DEMONBREUN ST,1ST AVE S & DEMONBREUN ST SB,0,1AVDEMSN,
36.129319,,12ALAWNN,-86.788814,,,,12TH AV S & UNKNOWN AL,12TH AVE S & LAWRENCE AVE NB,0,12ALAWNN,
36.170671,,LEBRIVWN,-86.653457,,,,LEBANON PK & RIVERSTONE BLVD,LEBANON PIKE & RIVERSTONE BLVD SB,0,LEBRIVWN,
36.141069,,WESACKWN,-86.817404,,,,,WEST END AVE & ACKLEN PARK DR WB,0,WESACKWN,
36.21566,,BULJONWN,-86.755942,,,,,BULLOCK AVE & JONES AVE,0,BULJONWN,
36.15358,,12ALAUNN,-86.785484,,,,12TH AVE S & LAUREL ST,12TH AVE & LAUREL ST NB,0,12ALAUNN,
36.166215,,UNI2AWN,-86.777565,,,,UNION ST N & SKYVIEW DR,UNION ST & 2ND AVE WB,0,UNI2AWN,
36.157159,,CLI40_WN,-86.834129,,,,,CLIFTON AVE & 40TH AVE N WB,0,CLI40_WN,
36.168492,,HAR8AEN,-86.788412,,,,HARRISON ST & 8TH AV N,HARRISON ST & 8TH AVE N EB,0,HAR8AEN,
36.171492,,19SLILNN,-86.737189,,,,,S 19TH ST & LILLIAN ST NB,0,19SLILNN,
36.182686,,CLA18ASN,-86.812368,,,,,CLARKSVILLE PIKE & 18TH AVE SB,0,CLA18ASN,
36.145921,,ROYDONEN,-86.66687,,,,,ROYAL PKWY & DONELSON PIKE EB,0,ROYDONEN,
36.127999,,WHIPOSNN,-86.851772,,,,WHITE BRIDGE PK & POST RD,WHITE BRIDGE PIKE & POST RD NB,0,WHIPOSNN,
36.147059,,8ASOUSN,-86.779215,,,,8 AVENUE S & SOUTH,8TH AVE S & SOUTH ST SB,0,8ASOUSN,
36.185453,,26ACLANN,-86.818846,,,,,26TH AVE N & CLARKSVILLE PIKE NB,0,26ACLANN,
36.131505,,WESWILWM,-86.834269,,,,WEST END AV & WILSON BV,WEST END AVE & WILSON BLVD WB,0,WESWILWM,
36.185948,,DICCLESM,-86.773625,,,,N DICKERSON PK & CLEVELAND ST,N DICKERSON PIKE & CLEVELAND ST SB,0,DICCLESM,
36.01921,,MURSTOEN,-86.573521,,,,,MURFREESBORO PIKE & STONES RIVER RD,0,MURSTOEN,
36.110678,,POWBRASN,-86.767185,,,,,POWELL AVE & BRANSFORD AVE,0,POWBRASN,
36.17384,,JEF6AVEN,-86.788738,,,,JEFFERSON ST & 6TH AV N,JEFFERSON ST & 6TH AVE N,0,JEF6AVEN,
36.222723,,REVROWEF,-86.809341,,,,ROWAN DR & REVELS DR,Revels Dr & Rowan Dr EB,0,REVROWEF,
36.154919,,LEBCLOWN,-86.712349,,,,,LEBANON PIKE & CLOVERNOOK DR WB,0,LEBCLOWN,
36.197152,,GALCARSN,-86.742074,,,,,GALLATIN PK & CAROLYN AVE SB,0,GALCARSN,
36.193804,,METGREWM,-86.810007,,,,METRO CENTER & GREAT CIRCLE,METROCENTER & GREAT CIRCLE RD WB,0,METGREWM,
36.143929,,ELMSPEEM,-86.720575,,,,ELM HILL PK & SPENCE LN,ELM HILL PIKE  & SPENCE LN EB,0,ELMSPEEM,
36.181099,,MERBERNN,-86.768835,,,,MERIDIAN ST & TREUTLAND ST,MERIDIAN ST & BERRY ST NB,0,MERBERNN,
36.196325,,GREATHEM,-86.792789,,,,GREAT CIRCLE & VANTAGE WY,GREAT CIRCLE RD & ATHENS WAY EB,0,GREATHEM,
36.211304,,WHIWNSF,-86.797421,,,,,WHITES CREEK PIKE & W NOCTURNE DR S,0,WHIWNSF,
36.266161,,DUPARCEN,-86.686945,,,,,N DUPONT AVE & ARCHWOOD DR EB,0,DUPARCEN,
36.120879,,HILLOMNF,-86.807759,,,,US HWY 431 & LOMBARDY AVE,HILLSBORO PIKE & LOMBARDY AVE NB,0,HILLOMNF,
36.167983,,LEBCRAEN,-86.691344,,,,LEBANON RD & US HWY 70,LEBANON PIKE & CRAIGMEADE DR EB,0,LEBCRAEN,
36.184729,,CLA24AEN,-86.815769,,,,CLARKSVILLE PK & 24TH AV N,CLARKSVILLE PIKE & 24TH AVE N EB,0,CLA24AEN,
36.190951,,HYDMANSF,-86.838735,,,,,HYDES FERRY RD & MANCHESTER AVE SB,0,HYDMANSF,
36.019614,,MURSTOWF,-86.573641,,,,,MURFREESBORO PIKE & STONES RIVER RD,0,MURSTOWF,
36.169364,,SHE7SWN,-86.757731,,,,,SHELBY AVE & S 7TH ST WB,0,SHE7SWN,
36.172806,,1SOLDSM,-86.77405,,,,N 1ST ST & LAMBER,N 1ST ST & OLDHAM ST SB,0,1SOLDSM,
36.234298,,KCRTO,-86.767529,,,,,KNOLLCREST APARTMENTS,0,KCRTO,
36.144052,,ELMSPEWN,-86.72106,,,,,ELM HILL PIKE & SPENCE LN WB,0,ELMSPEWN,
36.145648,,WES27AWN,-86.811401,,,,WEST END AV & 27TH AV N,WEST END AVE & 27TH AVE S WB,0,WES27AWN,
36.143989,,ELMSPEWF,-86.72452,,,,,ELM HILL PIKE & SPENCE LN WB,0,ELMSPEWF,
36.145052,,CXOAMERI,-86.872141,,,,CHARLOTTE & AMERICAN,AMERICAN STATION OUTBOUND,0,CXOAMERI,
36.199003,,BAPLOCSM,-86.784718,,,,BAPTIST WORLD DR & LOCK DR,BAPTIST WORLD CENTER DR & LOCK DR SB,0,BAPLOCSM,
36.112013,,THOPOWEM,-86.764776,,,,THOMPSON & BRANDSFORD AV,THOMPSON LN & POWELL AVE EB,0,THOPOWEM,
36.246595,,GALBERWF,-86.721324,,,,,S GALLATIN PIKE & BERKLEY DR SB,0,GALBERWF,
36.134804,,WESBOWWN,-86.824957,,,,,WEST END AVE & BOWLING AVE WB,0,WESBOWWN,
36.138211,,BLA25AEN,-86.807159,,,,,BLAKEMORE AVE & 25TH AVE S EB,0,BLA25AEN,
36.173302,,DBTUNDNN,-86.808157,,,,,DR DB TODD BLVD & UNDERWOOD ST NB,0,DBTUNDNN,
36.247943,,NEEJAPEF,-86.682633,,,,,NEELY'S BEND RD & JASPERSON DR EB,0,NEEJAPEF,
36.144938,,MXIELMHI,-86.750456,,,,,ELM HILL STATION INBOUND,0,MXIELMHI,
36.200189,,DICGATSN,-86.770043,,,,,DICKERSON PIKE & GATEWOOD AVE SB,0,DICGATSN,
36.141977,,EDG9AWN,-86.780898,,,,,EDGE HILL AVE & 9TH AVE S WB,0,EDG9AWN,
36.119605,,HILSTOSF,-86.808852,,,,,HILLSBORO PIKE & STOKES LN SB,0,HILSTOSF,
36.018361,,MURREBWF,-86.568116,,,,,MURFREESBORO PIKE & REBECCA WAY WB,0,MURREBWF,
36.060282,,EDMELLSN,-86.741088,,,,,EDMONDSON PK & ELLINGTON CIRCLE SB,0,EDMELLSN,
36.169844,,LEBGRAEN,-86.674593,,,,LEBANON PK & GRAYLYNN DR,LEBANON PIKE & GRAYLYNN DR EB,0,LEBGRAEN,
36.138647,,31ANATEN,-86.810871,,,,,31ST AVE & NATCHEZ TRC EB,0,31ANATEN,
36.1956,,BRKFERNN,-86.776631,,,,,BRICK CHURCH PIKE & FERN AVE NB,0,BRKFERNN,
36.180096,,BUCDBTWN,-86.810953,,,,BUCHANAN ST & DR D B TODD JR BV,BUCHANAN ST & DR D B TODD JR BLVD WB,0,BUCDBTWN,
36.145473,,NXOCHSNT,-86.767093,,,,4TH AVE & CHESTNUT,CHESTNUT STATION OUTBOUND,0,NXOCHSNT,
36.150284,,BROLYLEN,-86.797249,,,,BROADWAY & 20 AVE,BROADWAY AVE & LYLE AVE EB,0,BROLYLEN,
36.134403,,WESBOWEN,-86.825523,,,,,WEST END AVE & BOWLING AVE EB,0,WESBOWEN,
36.24635,,GALBERNN,-86.721253,,,,S GALLATIN PK & BERKLEY DR,S GALLATIN PIKE & BERKLEY DR NB,0,GALBERNN,
36.187966,,DICCLESN,-86.773355,,,,,N DICKERSON PIKE & CLEVELAND ST SB,0,DICCLESN,
36.16642,,3AVDEASN,-86.779158,,,,,3RD AVE N & DEADERICK ST SB,0,3AVDEASN,
36.111844,,NXOTHMPN,-86.745821,,,,NOLENSVILLE & MCCLAIN AV,THOMPSON STATION OUTBOUND,0,NXOTHMPN,
36.195962,,CLIBUENM,-86.826163,,,,CLIFF & BUENA VISTA,CLIFF DR & SMITH TOWERS NB,0,CLIBUENM,
36.197056,,CLIBUENN,-86.82804,,,,CLIFF DR & BUENA VISTA PK,CLIFF DR & BUENA VISTA PIKE NB,0,CLIBUENN,
36.131286,,WESWILEN,-86.834495,,,,WEST END AV & WILSON BV,WEST END AVE & WILSON BLVD EB,0,WESWILEN,
36.138703,,CHLDWY,-86.800633,,,,STATE HWY 106 & 21ST AVE S,CHILDRENS WAY,0,CHLDWY,
36.272217,,ANDMCAWN,-86.690576,,,,,ANDERSON LN & MCARTHUR DR WB,0,ANDMCAWN,
36.525005,,CLK E11,-87.217205,,,,,CLARKSVILLE EXIT 11 P&R,0,CLK E11,
36.132303,,WHIBROSN,-86.857889,,,,WHITE BRIDGE RD & STATE HWY 155,WHITE BRIDGE PIKE & BROOKWOOD PL SB,0,WHIBROSN,
36.221018,,WHIREVNN,-86.804779,,,,WHITES CREEK PK & REVELS DR,WHITES CREEK PIKE & REVELS DR NB,0,WHIREVNN,
36.128278,,21AWLISN,-86.80325,,,,21ST AV S & W LINDEN AV,21ST AVE S & W LINDEN AVE SB,0,21AWLISN,
36.110999,,THOEUGEN,-86.754673,,,,,THOMPSON LN & EUGENIA AVE EB,0,THOEUGEN,
36.240308,,DOVMOOEF,-86.772658,,,,,DOVERSIDE DR & MOORWOOD DR EB,0,DOVMOOEF,
36.210208,,JONWOOSN,-86.757012,,,,JONES & WOODY HILL,JONES AVE & WOODYHILL DR SB,0,JONWOOSN,
36.20709,,WHIWTRSF,-86.791715,,,,,WHITES CREEK PIKE & W TRINITY LN SB,0,WHIWTRSF,
36.170072,,5AVHARNN,-86.784566,,,,,5TH AVE N & HARRISON ST NB,0,5AVHARNN,
36.171277,,DBTHEINN,-86.807315,,,,,DR DB TODD JR BLVD & HEIMAN ST NB,0,DBTHEINN,
36.130048,,GOOKIPSF,-86.700261,,,,,GOODBAR DR & KIPLING DR SB,0,GOOKIPSF,
36.182851,,16SEASNN,-86.740997,,,,,N 16TH ST & EASTLAND AVE NB,0,16SEASNN,
36.065119,,NOLNORSM,-86.71749,,,,,NOLENSVILLE PIKE & NORTHCREST DR SB,0,NOLNORSM,
36.187669,,MCK23AEN,-86.81402,,,,,MCKINNEY ST & 23RD AVE N EB,0,MCK23AEN,
36.066936,,NOLNORSN,-86.718231,,,,NOLENSVILLE & NORTHCREST DR.,NOLENSVILLE PIKE & NORTHCREST DR SB,0,NOLNORSN,
36.210434,,ANDALBNN,-86.600197,,,,,ANDREW JACKSON PKWY & ALBANY DR NB,0,ANDALBNN,
36.135904,,WED15AEF,-86.791639,,,,,WEDGEWOOD AVE & 15TH AVE S EB,0,WED15AEF,
36.246647,,CHECCTNN,-86.669281,,,,CHEYENNE BV & CHEYENNE CT,CHEYENNE BLVD & CHEYENNE CT,0,CHECCTNN,
36.192341,,CLACLISN,-86.829181,,,,CLARKSVILLE PK & CLIFF DR,CLARKSVILLE PIKE & CLIFF DR SB,0,CLACLISN,
36.24406,,DOVDICWF,-86.757403,,,,,DOVERSIDE DR & DICKERSON PIKE WB,0,DOVDICWF,
36.23502,,CREOAKSN,-86.766514,,,,,CREEKWOOD DR & OAKVIEW DR SB,0,CREOAKSN,
36.234351,,CREOAKSM,-86.767641,,,,CREEKWOOD DR & PARK CREEK DR,CREEKWOOD DR & OAKVIEW DR SB,0,CREOAKSM,
36.154039,,CXO2831,-86.818055,,,,CHARLOTTE AV & 28TH AV N,28TH/31ST AVE CONNECTOR STATION OUTBOUND,0,CXO2831,
36.134879,,WEDHILWF,-86.784337,,,,,WEDGEWOOD AVE & HILLSIDE AVE WB,0,WEDHILWF,
36.145528,,ELMELMEF,-86.706175,,,,,ELM HILL PIKE & ELM TREE DR EB,0,ELMELMEF,
36.252211,,CHECCRNN,-86.671039,,,,CHEYENNE CR & CHEYENNE BV,CHEYENNE BLVD & CHEYENNE CR,0,CHECCRNN,
36.157392,,HERPEAWN,-86.770331,,,,HERMITAGE AV & LEA AV,HERMITAGE AVE & PEABODY ST WB,0,HERPEAWN,
36.148963,,21WE,-86.800132,,,,,21ST AVE PAST WEST END AVE SB,0,21WE,
36.156777,,8ADEMNN,-86.78067,,,,,8TH AVE S & DEMONBREUN ST NB,0,8ADEMNN,
36.198567,,RIVDORNM,-86.722943,,,,RIVERSIDE DR & CONNECTING ROAD,RIVERSIDE DR & DORCHESTER AVE NB,0,RIVDORNM,
36.17301,,FAT18SEN,-86.73886,,,,,FATHERLAND ST & S 18TH ST EB,0,FAT18SEN,
36.169933,,LEBGRAWN,-86.674357,,,,,LEBANON PIKE & GRAYLNN DR WB,0,LEBGRAWN,
36.230572,,EWIRICWN,-86.765716,,,,,EWING DR & RICH ACRES DR WB,0,EWIRICWN,
36.149234,,WESLOUEN,-86.803474,,,,,WEST END AVE & LOUISE AVE EB,0,WESLOUEN,
36.230572,,EWIRICWF,-86.774495,,,,,EWING DR & RICHMOND HILL DR WB,0,EWIRICWF,
36.154331,,28ACHANF,-86.818228,,,,,28TH AVE & CHARLOTTE AVE NB,0,28ACHANF,
36.072571,,OLDHIKEN,-86.926732,,,,OLD HARDING PK & HICKS RD,OLD HARDING PIKE & HICKS RD EB,0,OLDHIKEN,
36.293366,,GALALLSN,-86.702361,,,,,N GALLATIN PK & ALTA LOMA RD SB,0,GALALLSN,
36.136129,,WED15AWF,-86.792241,,,,,WEDGEWOOD AVE & 15TH AVE S WB,0,WED15AWF,
36.171413,,SHE10SWN,-86.751834,,,,,SHELBY AVE & S 10TH ST WB,0,SHE10SWN,
36.101825,,NXOANTCH,-86.740711,,,,NOLENSVILLE PK & ANTIOCH PK,ANTIOCH STATION OUTBOUND,0,NXOANTCH,
36.117896,,HILGOLSF,-86.81009,,,,HILLSBORO PK & GOLF CLUB LN,HILLSBORO PIKE & GOLF CLUB LN SB,0,HILGOLSF,
36.111538,,THOKRAWN,-86.757605,,,,,THOMPSON LN & KRAFT DR WB,0,THOKRAWN,
36.065668,,EDMBRESF,-86.738441,,,,EDMONDSON PIKE & OLD HICKORY BLVD,EDMONDSON PK & BREWER DR SB,0,EDMBRESF,
36.143903,,ELMSPEEN,-86.722807,,,,ELM HILL PK & SPENCE LN,ELM HILL PIKE & SPENCE LN EB,0,ELMSPEEN,
36.130444,,8APRENN,-86.778409,,,,US HWY 31 & 8TH AVE S,8TH AVE S & PRENTICE AVE NB,0,8APRENN,
36.244267,,CHETRANF,-86.767572,,,,,CHESAPEAKE DR & TRAILWAY CIR NB,0,CHETRANF,
36.050198,,MXIMTVIE,-86.648198,,,,,MOUNT VIEW STATION INBOUND,0,MXIMTVIE,
36.069958,,EDMDURSF,-86.73523,,,,EDMONDSON PIKE & DERBY TRCE,EDMONDSON PK & DURRETT DR SB,0,EDMDURSF,
36.229022,,GALBRONN,-86.725043,,,,,S GALLATIN PIKE & BROADMOOR DR NB,0,GALBRONN,
36.230334,,EWIRICEN,-86.774003,,,,,EWING DR & RICHMOND HILL DR EB,0,EWIRICEN,
36.16173,,BRO2AEN,-86.775429,,,,BROADWAY & 2 AVE,BROADWAY AVE & 2ND AVE S EB,0,BRO2AEN,
36.230466,,EWIRICEF,-86.765423,,,,,EWING DR & RICH ACRES DR EB,0,EWIRICEF,
36.231059,,EWIEWIWN,-86.7766,,,,EWING DR & EWING LANE,EWING DR & EWING LN WB,0,EWIEWIWN,
36.077611,,H70FORWM,-86.911923,,,,,HWY 70 & FOREST PARK APARTMENTS WB,0,H70FORWM,
36.230718,,RICCRESM,-86.773743,,,,RICHMOND HILL & EWING DR,RICHMOND HILL DR & CREEKWOOD DR SB,0,RICCRESM,
36.162113,,HER24AEN,-86.812001,,,,HERMAN ST & 24TH AV N,HERMAN ST & 24TH AVE N EB,0,HER24AEN,
36.180718,,ROSGARSN,-86.796562,,,,STATE HWY 12 & 8TH AVE N,ROSA PARKS BLVD & GARFIELD ST SB,0,ROSGARSN,
36.168027,,JAMGAYWF,-86.777868,,,,,JAMES ROBERTSON PKWY & GAY ST WB,0,JAMGAYWF,
36.098467,,MURHARWN,-86.658987,,,,MURFREESBORO & SMITH SPRINGS,MURFREESBORO PIKE & HARDING PL WB,0,MURHARWN,
36.121116,,HARBELNM,-86.852773,,,,HARDING PK & GARDNER DR,HARDING PIKE & BELLE MEADE BLVD NB,0,HARBELNM,
36.151738,,ELMROYWN,-86.676829,,,,ELM HILL PK & ROYAL PW,ELM HILL PIKE & ROYAL PKWY WB,0,ELMROYWN,
36.228219,,BUEBUEEM,-86.823837,,,,BUENAVIEW BV & BUENA VISTA PK,BUENAVIEW BLVD & BUENA VISTA PIKE E,0,BUEBUEEM,
36.159875,,DEM2AEN,-86.77392,,,,DEMONBREUN ST & 2ND AVE S,DEMONBREUN ST & 2ND AVE EB,0,DEM2AEN,
36.207966,,LEBHIGSN,-86.611594,,,,,LEBANON PIKE & HIGHLAND VIEW DR SB,0,LEBHIGSN,
36.199178,,BAPLOCNM,-86.78474,,,,BAPTIST WORLD DR & SEMINARY ST,BAPTIST WORLD CENTER DR & LOCK RD NB,0,BAPLOCNM,
36.225665,,DICHILSF,-86.760372,,,,,DICKERSON PIKE & HILLHURST DR SB,0,DICHILSF,
36.189409,,COUHYDNN,-86.83773,,,,,COUNTY HOSPITAL RD & HYDES FERRY RD NB,0,COUHYDNN,
36.160819,,TEN55AWN,-86.854182,,,,TENNESSEE AV & 55TH AV N,TENNESSEE AVE & 55TH AVE N WB,0,TEN55AWN,
36.185908,,25ACLASN,-86.817295,,,,,25TH AVE & CLARKSVILLE PIKE SB,0,25ACLASN,
36.213487,,ANDTRENN,-86.597721,,,,,ANDREW JACKSON PKWY & TRENTON DR NB,0,ANDTRENN,
36.134135,,21AFAINN,-86.801021,,,,US HWY 431 & 21ST AVE S,21ST AVE S & FAIRFAX AVE NB,0,21AFAINN,
36.107656,,GRAGRANN,-86.794002,,,,GRANNY WHITE PIKE & GRANDVIEW DR,GRANNYWHITE PIKE & GRANDVIEW DR NB,0,GRAGRANN,
36.130769,,WESLAUWN,-86.836739,,,,,WEST END AVE & LAUDERDALE RD WB,0,WESLAUWN,
36.153717,,11ALAUNN,-86.784006,,,,252 11TH AVE & LAUREL ST,11TH AVE & LAUREL ST NB,0,11ALAUNN,
36.158385,,LEBWILWN,-86.705769,,,,LEBANON PIKE & WILOWEN DR,LEBANON PIKE & WILLOWEN DR WB,0,LEBWILWN,
36.173759,,3AJACNN,-86.783839,,,,3RD AV N & JACKSON ST,3RD AVE N & JACKSON ST NB,0,3AJACNN,
36.151873,,ZCHAFAIN,-86.761954,,,,CHARLES E DAVIS BV & FAIN ST,CHARLES DAVID BLVD & FAIN ST NB,0,ZCHAFAIN,
36.195265,,PORRIVEN,-86.724159,,,,PORTER RD & PORTER AV,PORTER RD & RIVERSIDE DR EB,0,PORRIVEN,
36.168906,,LEBMUNSN,-86.656096,,,,LEBANON PK & MUNN RD,LEBANON PIKE & MUNN RD SB,0,LEBMUNSN,
36.18946,,GALSHASN,-86.745942,,,,,GALLATIN AVE & SHARPE AVE SB,0,GALSHASN,
36.105615,,MXODONEL,-86.672004,,,,,DONELSON/DELL STATION OUTBOUND,0,MXODONEL,
36.124624,,BRAROSNN,-86.765827,,,,,BRANSFORD AVE & ROSEDALE AVE NB,0,BRAROSNN,
36.193698,,CLASHASN,-86.831449,,,,CLARKSVILLE PK & BUENA VISTA PK,CLARKSVILLE PIKE & S HAMILTON RD SB,0,CLASHASN,
36.16854,,7AVHARNN,-86.786736,,,,708 7TH AVE,7TH & HARRSION NB,0,7AVHARNN,
36.193064,,CLASHASF,-86.830338,,,,CLARKSVILLE PK & BUENA VISTA PK,CLARKSVILLE PIKE & S HAMILTON RD SB,0,CLASHASF,
36.150263,,ELMAIREN,-86.698039,,,,,ELM HILL PIKE & AIR LANE DR EB,0,ELMAIREN,
36.048635,,EDMBRNNF,-86.743546,,,,,EDMONDSON PK & BRENTWOOD PL NB,0,EDMBRNNF,
36.225554,,DICBENNF,-86.760194,,,,DICKERSON PK & BEN ALLEN RD,DICKERSON PIKE & BEN ALLEN RD NB,0,DICBENNF,
36.227653,,DICBENNM,-86.759511,,,,DICKERSON PK & EWING DR,DICKERSON PIKE & BEN ALLEN NB,0,DICBENNM,
36.161447,,6AVCOMSN,-86.780728,,,,6TH AV N & COMMERCE ST,6TH AVE N & COMMERCE ST SB,0,6AVCOMSN,
36.21553,,ADRKENEN,-86.719966,,,,,ADREE AVE & KENNEDY AVE EB,0,ADRKENEN,
36.132157,,WHIBRONF,-86.857574,,,,WHITEBRIDGE RD & BROOKWOOD PL,WHITE BRIDGE PIKE & BROOKWOOD PL NB,0,WHIBRONF,
36.255263,,NEEFOREN,-86.704591,,,,NEELYS BEND RD & FOREST PARK,NEELEY'S BEND RD & FOREST PARK RD,0,NEEFOREN,
36.168689,,JEFI40WN,-86.813078,,,,JEFFERSON & WILSON VILLAGE,JEFFERSON ST & I-40 WB,0,JEFI40WN,
36.256277,,CHEMANNN,-86.674733,,,,,CHEYENNE BLVD & HIDDEN ACRES APTS NB,0,CHEMANNN,
36.302544,,GALCONSF,-86.692333,,,,N GALLATIN PK & CONFERENCE DR,GALLATIN PK & CONFERENCE DR SB,0,GALCONSF,
36.257698,,CHEMANNF,-86.677769,,,,,CHEYENNE BLVD & MANZANO RD NB,0,CHEMANNF,
36.112341,,HILWOOSM,-86.811187,,,,HILLSBORO PK & WOODMONT BV,HILLSBORO PIKE & WOODMONT BLVD  SB,0,HILWOOSM,
36.207698,,GALIVENN,-86.735472,,,,GALLATIN PK & MAYNOR AV,GALLATIN PIKE & IVERSON AVE NB,0,GALIVENN,
36.147269,,8ABASNN,-86.778953,,,,8TH AVENUE & BASS,8TH AVE S & BASS ST NB,0,8ABASNN,
36.114169,,HILWOOSN,-86.811039,,,,,HILLSBORO PIKE & WOODMONT BLVD SB,0,HILWOOSN,
36.086677,,GRASSMEP,-86.752459,,,,,GRASSMERE PARK I EB,0,GRASSMEP,
36.149954,,20ABRONF,-86.798191,,,,20TH AV S & BROADWAY,20TH AVE S & BROADWAY AVE NB,0,20ABRONF,
36.086113,,NOLELYNN,-86.729211,,,,NOLENSVILLE PK & ELYSIAN FIELDS RD,ELYSIAN FIELDS STATION INBOUND,0,NOLELYNN,
36.195767,,RIVPORSN,-86.723579,,,,,RIVERSIDE DR & PORTER RD SB,0,RIVPORSN,
36.134748,,12AWESNN,-86.788904,,,,12TH AV S & W GROVE AV,12TH AVE S & WEST GROVE AVE NB,0,12AWESNN,
36.133255,,WEDBRAEN,-86.769002,,,,,WEDGEWOOD AVE & BRANSFORD AVE EB,0,WEDBRAEN,
36.136823,,12AWEDSN,-86.78843,,,,12TH AVE S & WADE AVE,12TH AVE S & WEDGEWOOD AVE SB,0,12AWEDSN,
36.104798,,GRAMORSM,-86.796221,,,,GRANNY WHITE PK & MORROW AV,GRANNY WHITE PIKE & MORROW AVE SB,0,GRAMORSM,
36.135496,,12AWEDSF,-86.789043,,,,12TH AV S & W GROVE AV,12TH AVE S & WEDGEWOOD SB,0,12AWEDSF,
36.113099,,MURKNIWF,-86.689011,,,,,MURFREESBORO PIKE & KNIGHT VALLEY D,0,MURKNIWF,
36.204497,,LEBBELNN,-86.614604,,,,LEBANON PK & BELINDA DR,LEBANON PIKE & BELINDA DR NB,0,LEBBELNN,
36.145763,,DONROYNN,-86.666486,,,,DONELSON PIKE & SHACKLETT DR,DONELSON PKWY & ROYAL PKWY NB,0,DONROYNN,
36.195357,,LEBBONSF,-86.621937,,,,LEBANON PK & MUNN RD,LEBANON PIKE & BONNA SPRINGS DR SB,0,LEBBONSF,
36.128043,,WHIPOSSN,-86.852227,,,,WHITE BRIDGE PK & POST RD,WHITE BRIDGE PIKE & POST RD SB,0,WHIPOSSN,
36.07089,,TODSAWEF,-86.946694,,,,,TODD PREIS DR & SAWYER BROWN RD EB,0,TODSAWEF,
36.158204,,40ACATNN,-86.834186,,,,40TH AV N & CATHERINE JOHNSON PW,40TH AVE N & CATHERINE JOHNSON PKWY NB,0,40ACATNN,
36.244635,,DWMRT,-86.760445,,,,,DICKERSON RD WAL MART,0,DWMRT,
36.134916,,MASPATNN,-86.704613,,,,,MASSMAN DR & PATRICIA DR NB,0,MASPATNN,
36.180613,,23RBUCSN,-86.814645,,,,,23RD AVE & BUCHANAN ST SB,0,23RBUCSN,
36.20058,,DICGATNF,-86.769664,,,,DICKERSON PK & GATEWOOD AV,DICKERSON PIKE & GATEWOOD AVE NB,0,DICGATNF,
36.179259,,3AVTAYNN,-86.787365,,,,3RD AV N & TAYLOR ST,3RD AVE N & TAYLOR ST NB,0,3AVTAYNN,
36.215813,,MCGPENNN,-86.68894,,,,MCGAVOCK PIKE & PENNINGTON BEND RD,MCGAVOCK PIKE & PENNINGTON RD NB,0,MCGPENNN,
36.197061,,LEBOLDSF,-86.621058,,,,,LEBANON PIKE & OLD HICKORY BLVD SB,0,LEBOLDSF,
36.131145,,WESMOCWN,-86.835572,,,,,WEST END AVE & MOCKINGBIRD RD WB,0,WESMOCWN,
36.127213,,THOCATEN,-86.704016,,,,THOMPSON PL & COARSEY DR,THOMPSON PL & CATINA DR EB,0,THOCATEN,
36.096467,,H70VOSWN,-86.877528,,,,STATE HWY 1 & MEMPHIS BRISTOL HWY,HIGHWAY 70 S & VOSSLAND DR WB,0,H70VOSWN,
36.053735,,NOLBRESN,-86.715196,,,,US HWY 31 ALT & US HWY 41 ALT,NOLENSVILLE  PK & BREWER DR,0,NOLBRESN,
36.079693,,HARWAUEM,-86.748462,,,,HARDING PL & HUMBER DR,HARDING PL & WAUFORD DR EB,0,HARWAUEM,
36.20624,,LEBMONSN,-86.613246,,,,,LEBANON PIKE & MONACO DR SB,0,LEBMONSN,
36.080914,,HARWAUEN,-86.751777,,,,,HARDING PL & WAUFORD DR EB,0,HARWAUEN,
36.163356,,33AALBSN,-86.826119,,,,,33 RD AVE N & ALBION ST SB,0,33AALBSN,
36.160454,,DRDJOJNN,-86.801749,,,,DR D B TODD JR BV & JO JOHNSTON,DR DB TODD JR BLVD & JO JOHNSTON AVE NB,0,DRDJOJNN,
36.127309,,THOCATWN,-86.703813,,,,,THOMPSON PL & CATINA DR WB,0,THOCATWN,
36.07108,,TODSAWWN,-86.94684,,,,,TODD PREIST DR & SAWYER BROWN RD WB,0,TODSAWWN,
36.209543,,ANDDESNN,-86.601961,,,,,ANDREW JACKSON PKWY & DES MOINES DR,0,ANDDESNN,
36.186309,,CLA26ASN,-86.818911,,,,CLARKSVILLE PIKE & 26TH AVE N,CLARKSVILLE PIKE & 26TH AVE SB,0,CLA26ASN,
36.237993,,VAIROBEN,-86.769273,,,,VAILVIEW DR & UNNAMED STREET,VAILVIEW DR & ROBWOOD DR EB,0,VAIROBEN,
36.082531,,HARTAMEN,-86.710672,,,,,HARDING PL & TAMPA DR EB,0,HARTAMEN,
36.179851,,16SORDSN,-86.741537,,,,N 16TH ST & ORDWAY PL,N 16TH ST & ORDOWAY PL SB,0,16SORDSN,
36.204271,,MCGHUFWN,-86.729218,,,,,MCGAVOCK PIKE & HUFFINE ST WB,0,MCGHUFWN,
36.178783,,MERLISEN,-86.77052,,,,MERIDIAN & SPRING,MERIDIAN ST & LISCHEY PL EB,0,MERLISEN,
36.14307,,EDG15AEN,-86.790822,,,,,EDGEHILL AVE & 15TH AVE S EB,0,EDG15AEN,
36.228732,,DICEWISF,-86.759498,,,,DICKERSON PK & EWING DR,DICKERSON PIKE & EWING DR SB,0,DICEWISF,
36.16895,,LEBFAIWF,-86.683692,,,,LEBANON PIKE & BRILEY PW RAMP,LEBANON PIKE & FAIRVIEW WB,0,LEBFAIWF,
36.27989,,GXIEDGEN,-86.708677,,,,,EDGEMEADE STATION INBOUND,0,GXIEDGEN,
36.121461,,FRAKIRSN,-86.775606,,,,US HWY 31 & STATE HWY 6,FRANKLIN PIKE & KIRKWOOD AVE SB,0,FRAKIRSN,
36.152461,,CHA39AEF,-86.832264,,,,CHARLOTTE & 39 AVE,CHARLOTTE AVE & 39TH AVE N EB,0,CHA39AEF,
36.183987,,GXOEASTF,-86.748178,,,,,EASTLAND STATION OUTBOUND,0,GXOEASTF,
36.169156,,LEBFAIWN,-86.682295,,,,,LEBANON PIKE & FAIRWAY DR WB,0,LEBFAIWN,
36.169855,,SHE8SEN,-86.756272,,,,,SHELBY AVE & S 8TH ST EB,0,SHE8SEN,
36.24761,,VILBRIWN,-86.777996,,,,,VILLAGE TRL & BRICK CHURCH PIKE WB,0,VILBRIWN,
36.215769,,HAYDYENN,-86.833977,,,,HAYNES PARK DR & KINGVIEW DR,HAYNES PARK DR & DYER CT NB,0,HAYDYENN,
36.204013,,DICTRINM,-86.768942,,,,DICKERSON PK & E TRINITY LN,DICKERSON PIKE & E TRINITY LN NB,0,DICTRINM,
36.205694,,DICTRINN,-86.768557,,,,DICKERSON PK & E TRINITY LN,DICKERSON PIKE & E TRINTY LN NB,0,DICTRINN,
36.168943,,WOON1SWF,-86.772877,,,,,WOODLAND ST & N 1ST ST WB,0,WOON1SWF,
36.185639,,CLA25AEN,-86.817557,,,,CLARKSVILLE & 24 AVE,CLARKSVILLE PIKE & 25TH AVE N EB,0,CLA25AEN,
36.219947,,GALCURSN,-86.72741,,,,,GALLATIN PIKE & CURDWOOD BLVD SB,0,GALCURSN,
36.134265,,21AFAISN,-86.801283,,,,21ST AV S & MAGNOLIA BV,21ST AVE S & FAIRFAX AVE SB,0,21AFAISN,
36.14207,,ZCHEFORE,-86.775873,,,,CHESTNUT ST & FORT NEGLEY BV,CHESTNUT ST & FORT NEGLEY BLVD EB,0,ZCHEFORE,
36.052039,,EDMHUNNN,-86.743057,,,,EDMONDSON PK & HUNTINGTON PW,EDMONDSON PIKE & HUNTINGTON PKWY NB,0,EDMHUNNN,
36.166036,,UNI2AEF,-86.777419,,,,,UNION ST & 2ND AVE EB,0,UNI2AEF,
36.172433,,UND22AWM,-86.812156,,,,UNDERWOOD ST & 23RD AVE N,UNDERWOOD ST & 22ND AVE N WB,0,UND22AWM,
36.17253,,UND22AWN,-86.811402,,,,,UNDERWOOD ST & 22ND AVE N WB,0,UND22AWN,
36.192056,,CLACLINN,-86.82853,,,,CLARKSVILLE PK & CLIFF DR,CLARKSVILLE PIKE & CLIFF DR NB,0,CLACLINN,
36.185506,0,CLA25AWN,-86.817082,,,,CLARKSVILLE PK & 25TH AV N,CLARKSVILLE PIKE & 25TH AVE N WB,0,CLA25AWN,
36.169933,,8A9ANM,-86.789091,,,,8TH AVE N & JEFFERSON,8TH AVE N & 9TH AVE N NB,0,8A9ANM,
36.207101,,MCGSTRWM,-86.719288,,,,MCGAVOCK PK,MCGAVOCK PIKE & STRATFORD AVE WB,0,MCGSTRWM,
36.173092,,UND21AWN,-86.810246,,,,UNDERWOOD ST & 21ST AV N,UNDERWOOD ST & 21ST AVE N WB,0,UND21AWN,
36.176771,,ARTGARNN,-86.800059,,,,ARTHUR ST. & GARFIELD AVE,ARTHUR ST & GARFIELD AVE NB,0,ARTGARNN,
36.165,,CHA7AWN,-86.78406,,,,,CHARLOTTE AVE & 7TH AVE N WB,0,CHA7AWN,
36.17705,,25AFINNN,-86.816405,,,,,25TH AVE N & FINLAND ST NB,0,25AFINNN,
36.161002,,TEN51AWM,-86.849615,,,,TENNESSEE AV & 52ND AV N,TENNESSEE AVE & 51ST AVE N WB,0,TEN51AWM,
36.154948,,HERLINSN,-86.76389,,,,,HERMITAGE AVE & LINDSLEY AVE SB,0,HERLINSN,
36.10985,,THOWINEN,-86.734791,,,,,THOMPSON LN & WINGATE AVE EB,0,THOWINEN,
36.111186,,THOEUGWN,-86.754258,,,,,THOMPSON LN & EUGENIA AVE WB,0,THOEUGWN,
36.229693,,EWIDICWF,-86.76051,,,,EWING DR & DICKERSON PK,EWING DR & DICKERSON PIKE WB,0,EWIDICWF,
36.066365,,BELMORNN,-86.636629,,,,BELL ROAD & MORRIS GENTRY BV,BELL RD & MORRIS GENTRY BLVD NB,0,BELMORNN,
36.154016,,WES16AEN,-86.793374,,,,WEST END AV & 16TH AV S,WEST END AVE & 16TH AVE S EB,0,WES16AEN,
36.128639,,HARSTTWM,-86.84208,,,,HARDING & ST THOMAS HOSPITAL,HARDING PIKE & ST. THOMAS HOSPITAL,0,HARSTTWM,
36.150192,,WES21AEN,-86.801522,,,,WEST END AVE & 21ST AVE N,WEST END AVE & 21ST AVE S EB,0,WES21AEN,
36.151548,,WES20AWN,-86.79923,,,,WEST END AV & 20TH AV S,WEST END AVE & 20TH AVE S WB,0,WES20AWN,
36.217547,,MUSMCGNF,-86.69614,,,,MUSIC VALLEY DR & MCGAVOC PK,MUSIC VALLEY DR & MCGAVOC PIKE NB,0,MUSMCGNF,
36.168806,,LEBBRIWN,-86.685747,,,,,LEBANON PIKE & BRILEY PKWY WB,0,LEBBRIWN,
36.171507,,DBTHEISN,-86.807542,,,,,DR DB TODD JR BLVD & HEIMAN ST SB,0,DBTHEISN,
36.165606,,39AJOHNN,-86.83418,,,,39TH AV N & JOHN L DRIVER BV,39TH AVE N & JOHN L DRIVER BLVD NB,0,39AJOHNN,
36.079052,,WALBROEM,-86.720713,,,,,WALLACE RD & BROOKRIDGE TL EB,0,WALBROEM,
36.169429,,WOON1SEN,-86.771159,,,,WOODLAND ST & S 1ST ST,WOODLAND ST & S 2ND ST EB,0,WOON1SEN,
36.041333,,EDMNIPNN,-86.74364,,,,,EDMONSON PK & NIPPERS CORNER NB,0,EDMNIPNN,
36.14638,,CHE1AVWF,-86.763375,,,,CHESTNUT ST & 1ST AV S,CHESTNUT & 1ST AVE WB,0,CHE1AVWF,
36.203172,,BATMEASN,-86.789223,,,,,BAPTIST WORLD CENTER DR & MEADE DR SB,0,BATMEASN,
36.168525,,SHE6SWM,-86.759952,,,,,SHELBY AVE & S 6TH ST WB,0,SHE6SWM,
36.204256,,DICWTRSF,-86.769112,,,,DICKERSON & W TRINITY LANE,DICKERSON PIKE & W TRINITY LN SB,0,DICWTRSF,
36.142489,,21AMEDSF,-86.800118,,,,21ST AV S & GARLAND AV,21ST AVE S & MEDICAL CENTER DR SB,0,21AMEDSF,
36.079939,,WALWILEF,-86.703564,,,,,WALLACE RD & WILLARD DR EB,0,WALWILEF,
36.157738,,DEM6AEN,-86.778603,,,,209 6TH AVE & DEMONBREUN ST,DEMONBREUN ST & 6TH AVE EB,0,DEM6AEN,
36.074125,,H70OLDWF,-86.923236,,,,70 S & OLD HARDING PK,HWY 70 S & OLD HARDING PIKE WB,0,H70OLDWF,
36.12568,,NXIGLNRS,-86.752361,,,,NOLENSVILLE & GLENROSE,GLENROSE STATION INBOUND,0,NXIGLNRS,
36.127696,,HARBOSWN,-86.843826,,,,HARDING & WOODLAWN,HARDING PIKE & BOSLEY SPRINGS RD WB,0,HARBOSWN,
36.126788,,HARBOSWM,-86.845188,,,,,HARDING PIKE & BOSLEY SPRINGS RD WB,0,HARBOSWM,
36.217237,,ROWBUENN,-86.819123,,,,ROWAN DRIVE & BUENA VISTA PK,ROWAN DR & BUENA VISTA PIKE NB,0,ROWBUENN,
36.145597,,12AARCSN,-86.786258,,,,12TH AV S & ARCHER ST,12TH AVE S & ARCHER ST SB,0,12AARCSN,
36.173071,,MAI5STWN,-86.764954,,,,,MAIN ST & 5TH ST WB,0,MAI5STWN,
36.113067,,BRAHEANF,-86.766875,,,,,BRANSFORD AVE & HEATHER PL NB,0,BRAHEANF,
36.152592,,CHA39AWN,-86.833179,,,,CHARLOTTE & 39 AVE,CHARLOTTE AVE & 39TH AVE N WB,0,CHA39AWN,
36.109868,,HILCRENM,-86.81142,,,,HILLSBORO PK & CRESTMOOR RD,HILLSBORO PIKE & CRESTMOOR RD NB,0,HILCRENM,
36.255563,,NEEMADEF,-86.706991,,,,380 NEELYS BEND RD & IDLEWILD AVE,NEELY'S BEND RD & MADISON BLVD EB,0,NEEMADEF,
36.139535,,KARBRIEN,-86.700785,,,,,KAREN DR & BRILEY PKWY EB,0,KARBRIEN,
35.993176,0,SMRY,-86.526609,,,,NOLAN & LOWRY,SMYRNA STARS & STRIKES,0,SMRY,
36.202074,,BAPHAYSF,-86.788515,,,,BAPTIST WORLD CTR DR & HAYNES MEADE CR,BAPTIST WORLD CENTER DR & HAYNES MEADE CR SB,0,BAPHAYSF,
36.079863,,WALWILWF,-86.703793,,,,,WALLACE RD & WILLARD DR WB,0,WALWILWF,
36.065813,,EDMBRENN,-86.738181,,,,,EDMONDSON PK & BREWER DR NB,0,EDMBRENN,
36.117949,,HILGOLNF,-86.809911,,,,HILLSBORO PK & GOLF CLUB LN,HILLSBORO PIKE & GOLF CLUB LN NB,0,HILGOLNF,
36.044689,,EDMLIBSF,-86.744114,,,,EDMONDSON PIKE & DERBY TRCE,EDMONDSON LIBRARY SB,0,EDMLIBSF,
36.195725,,FERBRIWN,-86.776665,,,,,FERN AVE & BRICK CHURCH PK WB,0,FERBRIWN,
36.167232,,HER12AWN,-86.796321,,,,,HERMAN ST & 12TH AVE N WB,0,HER12AWN,
36.175605,,GXO7AVEF,-86.757841,,,,,MAIN STREET STATION OUTBOUND,0,GXO7AVEF,
36.152788,,CHA33AEN,-86.823741,,,,US HWY 70 & 33RD AVE N,CHARLOTTE AVE & 33RD AVE N,0,CHA33AEN,
36.198278,,GREATHEF,-86.795193,,,,GREAT CIRCLE RD & CONNECTING ROAD,GREAT CIRCLE RD & ATHENS WAY EB,0,GREATHEF,
36.181662,,LEBDOWN,-86.642131,,,,,LEBANON PIKE & DOWNEY MEADE DR SB,0,LEBDOWN,
36.217766,,DICLORSN,-86.763171,,,,,DICKERSON PK & LORRAINE AVE SB,0,DICLORSN,
36.263129,,OLDMYAWN,-86.690288,,,,,E OLD HICKORY BLVD & MYATT DR WB,0,OLDMYAWN,
36.182177,,23ASEISN,-86.814445,,,,,23RD AVE N & SEIFRIED ST SB,0,23ASEISN,
36.13893,,MURARLEM,-86.732963,,,,,MURFREESBORO PIKE & ARLINGTON AVE E,0,MURARLEM,
36.259274,,CHEWARNF,-86.678827,,,,,CHEYENNE BLVD & WARRIOR RD NB,0,CHEWARNF,
36.17214,,3AVSTONN,-86.782792,,,,,3RD AVE & STOCKYARD BLVD NB,0,3AVSTONN,
36.016241,,MURVETEF,-86.561595,,,,,MURFREESBORO PIKE & VETERANS MEMORI,0,MURVETEF,
36.152907,,CHA33AWF,-86.82465,,,,,CHARLOTTE AVE & 33RD AVE WB,0,CHA33AWF,
36.160003,,MOR57ASN,-86.857182,,,,5707 MORROW RD & 57TH AVE,MORROW RD & 57TH AVE N SB,0,MOR57ASN,
36.139606,,12AHORNN,-86.787525,,,,12TH AV S & HORTON AV,12TH AVE S & HORTON AVE NB,0,12AHORNN,
36.124353,,BRAROSSF,-86.765931,,,,BRANSFORD AVE & MARTIN ST,BRANSFORD AVE  & ROSEDALE AVE SB,0,BRAROSSF,
36.15387,,CXI2831,-86.818414,,,,CHARLOTTE AV & 28TH AV N,28TH/31ST AVE CONNECTOR STATION INBOUND,0,CXI2831,
36.204342,,OPROPRNF,-86.693747,,,,PARKING LOT & DRIVEWAY,OPRY MILLS SERVICE COURT 6,0,OPROPRNF,
36.235746,,BRIRICNN,-86.781093,,,,BRICK CHURCH PK & RICHMOND HILL DR,BRICK CHURCH PIKE & RICHMOND HILL D,0,BRIRICNN,
36.202834,,OPROPRNM,-86.693524,,,,PARKING LOT & DRIVEWAY,OPRY MILLS FOOD COURT,0,OPROPRNM,
36.168582,,LEBBRIEM,-86.685922,,,,,LEBANON PIKE & BRILEY PKWY EB,0,LEBBRIEM,
36.166445,,17AJACNN,-86.803208,,,,17TH AV N & JACKSON ST,17TH AVE N & JACKSON ST NB,0,17AJACNN,
36.167637,,LEBDONEN,-86.663513,,,,US HWY 70 & LEBANON PIKE,LEBANON PIKE & DONELSON PIKE EB,0,LEBDONEN,
36.166944,,LEBDONEM,-86.661052,,,,LEBANON PK & DONELSON,LEBANON PIKE & DONELSON PIKE EB,0,LEBDONEM,
36.180007,,DBTBUCNN,-86.810953,,,,,DR DB TODD BLVD & BUCHANAN ST NB,0,DBTBUCNN,
36.076953,,HWYSAWEN,-86.94581,,,,,HWY 70 S & SAWYER BROWN RD EB,0,HWYSAWEN,
36.13162,,NOLWOONF,-86.756438,,,,US HWY 31 ALT & WOODYCREST AVE,WOODYCREST STATION INBOUND,0,NOLWOONF,
36.072696,,MXIBELL,-86.636775,,,,,BELL STATION INBOUND,0,MXIBELL,
36.186352,,CLA26ANN,-86.818653,,,,CLARKSVILLE & 26 AVE,CLARKSVILLE PIKE & 26TH AVE NB,0,CLA26ANN,
36.186501,,JOHNEARL,-86.803996,,,,,JOHN EARLY SCHOOL,0,JOHNEARL,
36.246339,,BRIBRIEM,-86.771284,,,,,BRICKMONT DR & BRICKMONT CT EB,0,BRIBRIEM,
36.160713,,TENMORWN,-86.857962,,,,TENNESSEE AV & 57TH AV N,TENNESSEE AVE & MORROW RD WB,0,TENMORWN,
36.147335,,21AGRANN,-86.79928,,,,21ST AV S & GRAND AV,21ST AVE S & GRAND AVE NB,0,21AGRANN,
36.152984,,BRO17AEN,-86.794235,,,,BROADWAY & 17 AVE,BROADWAY AVE & 17TH AVE S EB,0,BRO17AEN,
36.068213,,NOLHAYSN,-86.719328,,,,US HWY 31 ALT & US HWY 41 ALT,NOLENSVILLE PIKE & HAYWOOD LN SB,0,NOLHAYSN,
36.089861,,H70CARSN,-86.890964,,,,,HWY 70 S & CARNAVON PKWY WB,0,H70CARSN,
36.178287,,DBT17ANN,-86.810246,,,,,DR D.B. TODD JR BLVD & 17TH AVE NB,0,DBT17ANN,
36.302603,,GALCONNN,-86.691876,,,,N GALLATIN PK & TWIN HILLS DR,GALLATIN PIKE & CONFERENCE DR NB,0,GALCONNN,
36.139339,,8AHAMSN,-86.778422,,,,8TH AVENUE & HAMILTON,8TH AVE S & HAMILTON AVE SB,0,8AHAMSN,
35.869183,,BRONORSN,-86.415033,,,,,BROAD ST & NORTHFIELD BLVD SB,0,BRONORSN,
36.217663,,ARDWILEN,-86.723805,,,,,ARDEE AVE & WILLIAMS TERRACE EB,0,ARDWILEN,
36.153658,,WES17AEN,-86.794441,,,,WEST END AV & 17TH AV S,WEST END AVE & 17TH AVE S EB,0,WES17AEN,
36.174309,,LEBSPRSN,-86.647406,,,,,LEBANON PIKE & SPRING PLACE DR SB,0,LEBSPRSN,
36.168179,,GAYJAMS,-86.78213,,,,JAMES ROBERTSON PW & GAY ST,GAY ST & JAMES ROBERTSON PKWY SB,0,GAYJAMS,
36.083767,,MURBROSN,-86.647361,,,,,MURFREESBORO PIKE & BROOKSBORO TER,0,MURBROSN,
36.088579,,MXONASHB,-86.649765,,,,,NASHBORO STATION OUTBOUND,0,MXONASHB,
36.146492,,WESNATWN,-86.809678,,,,WEST END AV & 26TH AV S,WEST END AVE & NATCHEZ TR WB,0,WESNATWN,
36.149301,,WHICHASF,-86.858048,,,,,WHITE BRIDGE PIKE & CHARLOTTE SHONE,0,WHICHASF,
36.219176,,MUSICVAL,-86.696413,,,,,MUSIC VALLEY VILLAGE,0,MUSICVAL,
36.077742,,HWYSAWWM,-86.947539,,,,HWY 70 S & BELLEVUE CENTER,HWY 70 S & SAWYER BROWN WB,0,HWYSAWWM,
36.234559,0,MCSHAM,-86.367777,,,,,STAR HAMILTON SPRINGS STATION,0,MCSHAM,
36.169721,,LEBPARWM,-86.677448,,,,LEBANON & MCGAVOCK,LEBANON PIKE & PARK DR WB,0,LEBPARWM,
36.076259,,H70CHIWN,-86.915859,,,,,HWY 70 S & CHIMNEY HILL WB,0,H70CHIWN,
36.167152,,HER12AEN,-86.796343,,,,,HERMAN ST & 12TH AVE N EB,0,HER12AEN,
36.217997,,KINTEMWF,-86.843251,,,,KINGS LN & CLARKSVILLE PIKE,KINGS LN & TEMPLE CHURCH PARK-N-RIDE,0,KINTEMWF,
36.071087,,NOLCOTSN,-86.72347,,,,NOLENSVILLE PK & BASS AV,NOLENSVILLE PIKE & COTTON LN SB,0,NOLCOTSN,
36.390575,,PLSNTVW,-87.020703,,,,,PLEASANT VIEW PARK-&-RIDE,0,PLSNTVW,
36.18018,,MERTRESN,-86.769153,,,,MERIDIAN & TRUETLAN,MERIDIAN ST & TREUTLAN ST SB,0,MERTRESN,
36.054896,,EDMMCMNN,-86.742608,,,,EDMONDSON PK & HUNTINGTON PW,EDMONDSON PIKE & McMURRAY DR NB,0,EDMMCMNN,
36.165072,,5AVDEANN,-86.781345,,,,5TH AVE N & UNION ST,5TH AVE & DEADERICK ST NB,0,5AVDEANN,
36.129503,,MURMLWWN,-86.714454,,,,US HWY 41 & STATE HWY 1,MURFREESBORO PK & MILLWOOD,0,MURMLWWN,
36.237217,,VAIQUAEN,-86.770335,,,,,VAILVIEW DR & QUALYNN DR EB,0,VAIQUAEN,
36.087096,,GRASKEY,-86.748705,,,,,GRASSMERE PARK & KEYSTONE AUTOMOTIVE SB,0,GRASKEY,
36.167003,,MCSDONEL,-86.666539,,,,NASHVILLE & EASTERN RR,STAR DONELSON STATION,0,MCSDONEL,
36.218152,,TUCHUMNN,-86.826347,,,,TUCKER ROAD & HUMMINGBIRD DR,TUCKER RD & HUMMINGBIRD DR NB,0,TUCHUMNN,
36.150156,,ELMACONN,-86.700202,,,,ELM HILL PK & ACORN DR,ELM HILL PIKE & ACORN DR NB,0,ELMACONN,
36.193722,,LISDOUSN,-86.76329,,,,,LISCHEY AVE & DOUGLAS AVE SB,0,LISDOUSN,
36.222513,,LYTBOYNN,-86.827134,,,,,LYTLE DR & BOYD DR NB,0,LYTBOYNN,
36.146854,,WES25AEN,-86.808497,,,,WEST END AV & 25TH AV S,WEST END AVE & 25TH AVE S EB,0,WES25AEN,
36.132436,,12ACALNM,-86.788657,,,,12TH AV S & CALDWELL AV,12TH AVE S & CALDWELL AVE NB,0,12ACALNM,
36.13057,,BNA,-86.66578,,,,TERMINAL DR & TRUMPET CIR,NASHVILLE INTERNATIONAL AIRPORT,0,BNA,
36.307973,,GALWMRT,-86.685963,,,,,WALMART GALLATIN PIKE,0,GALWMRT,
36.219365,,DICALHSF,-86.762615,,,,DICKERSON PK & ALHAMBRA CR,DICKERSON PIKE & ALHAMBRA CIR SB,0,DICALHSF,
35.982622,,MURWASSF,-86.51936,,,,,MURFREESBORO PIKE & WASHINGTON ST S,0,MURWASSF,
36.15053,,ACOELMSM,-86.70028,,,,,ACORN DR & ELM HILL PK SB,0,ACOELMSM,
36.151596,,ACOELMSN,-86.700375,,,,,ACORN DR & ELM TREE DR SB,0,ACOELMSN,
36.153276,,ELMATRWM,-86.688346,,,,,ELM HILL PIKE & ATRIUM WAY WB,0,ELMATRWM,
36.152446,,MORALASM,-86.852286,,,,,MORROW RD & ALABAMA AVE SB,0,MORALASM,
36.155318,,MORGEOSN,-86.8529,,,,,MORROW RD & GEORGIA AVE SB,0,MORGEOSN,
36.218706,,HPKL,-86.834137,,,,,HAYNES PARK DR & KINGS LN NB,0,HPKL,
36.161031,,TEN48AEN,-86.84537,,,,TENNESSEE & 48TH AVE NORTH,TENNESSEE AVE & 48TH AVE N EB,0,TEN48AEN,
36.166804,,MCC5_7,-86.781446,,,,UNNAMED & 5TH AVE N,CENTRAL 5TH AVE - BAY 7,0,MCC5_7,
36.173019,,2ASTONF,-86.782108,,,,2ND AVE N & STOCKYARD ST,2ND AVE & STOCKYARD BLVD NB,0,2ASTONF,
36.203518,,ANDRVISF,-86.606854,,,,ANDREW JACKSON PW & RACHELS VIEW,ANDREW JACKSON & RACHELS VIEW SB,0,ANDRVISF,
36.144832,,ELMFESWF,-86.745056,,,,,ELM HILL PIKE & FESSLERS LN WB,0,ELMFESWF,
36.151613,,FAIFAIE,-86.75675,,,,,FAIN ST & FAIRFIELD AVE EB,0,FAIFAIE,
36.154112,,HERCAUEM,-86.745251,,,,HERMITAGE & IN FRONT OF NES SUB STATION,HERMITAGE AVE & CAULEY AVE EB,0,HERCAUEM,
36.143101,,WHICORSF,-86.8578,,,,WHITE BRIDGE & CORBITT,WHITE BRIDGE PIKE & CORBETT LN SB,0,WHICORSF,
36.078579,,H70ERIWN,-86.908706,,,,70 S & OAKMONT CR,HWY 70 S & ERIN LN WB,0,H70ERIWN,
36.162295,,CXINGULC,-86.789985,,,,1079 CHARLOTTE AVE,11TH AVE / N GULCH STATION INBOUND,0,CXINGULC,
36.169007,,JEF21AEN,-86.809693,,,,JEFFERSON ST & 21ST AV N,JEFFERSON ST & 21ST AVE N EB,0,JEF21AEN,
36.066713,,BELMORSN,-86.636764,,,,BELL RD & MORRIS GENTRY BV,BELL RD & MORRIS GENTRY BLVD SB,0,BELMORSN,
36.17044,,SHE16SEN,-86.743113,,,,,SHELBY AVE & S 16TH ST EB,0,SHE16SEN,
36.206709,,ANDHIGNN,-86.605582,,,,ANDREW JACKSON PW & RACHELS TL,ANDREW JACKSON PKWY & HIGHLAND VIEW DR NB,0,ANDHIGNN,
36.154402,,LEBOMOEN,-86.739793,,,,,LEBANON PIKE & OMOHUNDRO PL EB,0,LEBOMOEN,
36.153458,,LEBOMOEM,-86.733717,,,,,LEBANON PIKE & OMOHUNDRO PL EB,0,LEBOMOEM,
36.249581,,CHECHENN,-86.670072,,,,,CHEYENNE BLVD & CANTON PASS NB,0,CHECHENN,
36.165374,,HER16AEN,-86.800325,,,,HERMAN ST & 16TH AV N,HERMAN ST & 16TH AVE N EB,0,HER16AEN,
36.213417,,HAYCHANN,-86.833893,,,,,HAYNES PARK DR & CHARLES CT NB,0,HAYCHANN,
36.154424,,LEBFESN,-86.743072,,,,,LEBANON PIKE & FESSLERS LN WB,0,LEBFESN,
36.144609,,ELMFESEN,-86.744305,,,,,ELM HILL PIKE & FESSLERS LN EB,0,ELMFESEN,
36.156645,,HERLEAEN,-86.768808,,,,,HERMITAGE AVE & LEA AVE EB,0,HERLEAEN,
36.183464,,PORFRANM,-86.732503,,,,,PORTER RD & FRANKLIN AVE NB,0,PORFRANM,
36.132429,,MURWILEN,-86.719647,,,,MURFREESBORO & WILHAGAN ROAD,MURFREESBORO PIKE & WILHAGAN RD EB,0,MURWILEN,
36.137605,,WED21AWN,-86.800191,,,,,WEDGEWOOD AVE & 21ST AVE S WB,0,WED21AWN,
36.165526,,HER16AWN,-86.800157,,,,,HERMAN ST & 16TH AVE N WB,0,HER16AWN,
36.115327,,GRABATSN,-86.792019,,,,GRANNY WHITE PK & BATTLEFIELD DR,GRANNY WHITE PIKE & BATTLEFIELD DR,0,GRABATSN,
36.208326,,DICGRISN,-86.767458,,,,DICKERSON PK & GRIZZARD AVE,DICKERSON PIKE & GRIZZARD AVE SB,0,DICGRISN,
36.079101,,WALTURWN,-86.708119,,,,,WALLACE RD & TURLEY DR WB,0,WALTURWN,
36.156152,,DEM10AEM,-86.782377,,,,DEMONBREUN ST & 9TH AV S,DEMONBREUN ST & 10TH AVE S,0,DEM10AEM,
36.152706,,MASAPPWN,-86.704406,,,,MASSMAN DR & MOLLOY ST,MASSMAN DR & APPLETON DR EB,0,MASAPPWN,
36.152786,,MASAPPWM,-86.704462,,,,,MASSMAN DR & APPLETON DR WB,0,MASAPPWM,
36.153681,,LEBOMOWN,-86.733762,,,,,LEBANON PIKE & OMOHUNDRO PL WB,0,LEBOMOWN,
36.112227,,THOBRAWM,-86.764816,,,,,THOMPSON LN & BRANSFORD DR WB,0,THOBRAWM,
36.156939,,LEBOMDEN,-86.709065,,,,,LEBANON PIKE & OMOHUNDRO DR EB,0,LEBOMDEN,
36.157039,,LEBOMOWF,-86.709045,,,,,LEBANON PIKE & OMOHUNDRO DR WB,0,LEBOMOWF,
36.171295,,2AJOJNM,-86.780997,,,,2ND AVE N & #28 ALY,2ND AVE N & JO JOHNSTON AVE NB,0,2AJOJNM,
36.144455,,PREWILNN,-86.880236,,,,PREMIER DR & 48TH AV N,PREMIER DR & WILCLAY DR NB,0,PREWILNN,
36.164652,,6AVDEASF,-86.78286,,,,6TH AVE N & UNION ST,6TH AVE & DEADERICK ST SB,0,6AVDEASF,
36.172506,,LEBDISEF,-86.649527,,,,,LEBANON PIKE & DISPAYNE DR EB,0,LEBDISEF,
36.14502,,MASELMSN,-86.711187,,,,,MASSMAN DR & ELM HILL PIKE SB,0,MASELMSN,
36.194256,,PORBRANM,-86.725595,,,,PORTER RD & TURNER ST,PORTER RD & BRANCH ST NB,0,PORBRANM,
36.214109,,GALGILNF,-86.730618,,,,,GALLATIN PIKE & GILLOCK ST NB,0,GALGILNF,
36.143655,,31AHEDSN,-86.816301,,,,,31ST AVE N AND HEDRICK ST SB,0,31AHEDSN,
36.137973,,WHIKNOSN,-86.857829,,,,WHITE BRIDGE PK & KNOB RD,WHITE BRIDGE PIKE & KNOB DR SB,0,WHIKNOSN,
36.161958,,ALAALBSN,-86.835529,,,,4088 ALAMEDA ST & ALBION ST,ALAMEDA AVE & ALBION ST SB,0,ALAALBSN,
36.078285,,H70ERIEN,-86.909009,,,,,HWY 70 S & ERIN LN EB,0,H70ERIEN,
36.15332,,HERKEIEN,-86.751144,,,,,HERMITAGE AVE & KEITH ST EB,0,HERKEIEN,
36.110034,,HILGRASM,-86.811638,,,,HILLSBORO & CRESTMOOR,HILLSBORO PIKE & GRAYBAR LN SB,0,HILGRASM,
36.157299,,KOR4AVWN,-86.774558,,,,,KOREAN VETS BLVD & 4TH AVE WB,0,KOR4AVWN,
36.138701,,BLANATWN,-86.810781,,,,,BLAKEMORE AVE & NATCHEZ TRC WB,0,BLANATWN,
36.175848,,1SSPRSM,-86.774565,,,,N 1ST ST & W 1ST ST,N 1ST ST & SPRING ST SB,0,1SSPRSM,
36.140507,,NXORAINS,-86.763861,,,,4TH AV S & RAINS AV,RAINS STATION OUTBOUND,0,NXORAINS,
36.2475,,VILSTAWN,-86.773512,,,,,VILLAGE TRL & STANDING STONE DR WB,0,VILSTAWN,
36.195954,,MAIFRENF,-86.81767,,,,MAINSTREAM DR & METRO CENTER,MAINSTREAM DR & FREELAND ST RD NB,0,MAIFRENF,
36.178443,,DEL26AEF,-86.819095,,,,,DELK AVE & 26TH AVE N WB,0,DEL26AEF,
36.171202,,SHE11SEN,-86.750954,,,,,SHELBY AVE & S 11TH ST EB,0,SHE11SEN,
36.15333,,LAFEWIEN,-86.775805,,,,,LAFAYETTE ST & EWING AVE SB,0,LAFEWIEN,
36.067411,,MUFFORNN,-86.631004,,,,,MURFREESBORO PIKE & POREST VIEW DR,0,MUFFORNN,
36.208232,,DICQUENN,-86.767299,,,,DICKERSON PK & QUEEN AV,DICKERSON PIKE & QUEEN AVE NB,0,DICQUENN,
36.133858,,WESCRAWN,-86.827582,,,,,WEST END AVE & CRAIGHEAD AVE WB,0,WESCRAWN,
36.114457,,ETHGLESF,-86.719833,,,,,E THOMPSON LN & GLENROSE SB,0,ETHGLESF,
36.225337,,BUEBUESM,-86.8226,,,,BUENA VISTA DRIVE & BUENAVIEW BV,BUENA VISTA PIKE & KINGS LN SB,0,BUEBUESM,
36.081379,,WALLINWF,-86.702372,,,,,WALLACE RD & LINBAR DR WB,0,WALLINWF,
36.106102,,ABBANEN,-86.816307,,,,,ABBOTT MARTIN RD & BANDYWOOD DR EB,0,ABBANEN,
36.112817,,GRANALNN,-86.792321,,,,GRANNY WHITE PK & NOELTON AV,GRANNY WHITE PIKE & NOELTON AVE NB,0,GRANALNN,
36.144522,,PREWILSF,-86.880339,,,,,PREMIER DR & WILCLAY DR SB,0,PREWILSF,
36.162858,,8AVUNINN,-86.784621,,,,8TH AV N & UNION ST,8TH AVE N & UNION ST NB,0,8AVUNINN,
36.219326,,BUEHUMSN,-86.821003,,,,BUENA VISTA PIKE & HUMMINGBIRD DRIVE,BUENA VISTA PIKE & HUMMINGBIRD DR S,0,BUEHUMSN,
36.132167,,WALMARTC,-86.906837,,,,PARKING LOT & 6TH AVE N,WALMART,0,WALMARTC,
36.168831,,10AHERNN,-86.792339,,,,10TH AV N & HERMAN ST,10TH AVE N & HERMAN ST NB,0,10AHERNN,
36.204976,,MCGGALWN,-86.737517,,,,,MCGAVOCK PIKE & GALLATIN PIKE WB,0,MCGGALWN,
36.172821,,LEBDISWN,-86.649359,,,,,LEBANON PIKE & DISPAYNE DR SB,0,LEBDISWN,
36.12615,,BRACRANF,-86.765965,,,,,BRANSFORD AVE & CRAIGHEAD ST NB,0,BRACRANF,
36.136443,,WHISTONF,-86.858001,,,,WHITEBRIDGE RD & STONEWAY TR,WHITE BRIDGE PIKE & STONEWAY TRL NB,0,WHISTONF,
36.150359,,NXILAFYT,-86.76764,,,,2ND AV S & CAMERON ST,LAFAYETTE STATION INBOUND,0,NXILAFYT,
36.185733,,MERWILSN,-86.768284,,,,,MERIDIAN ST & WILBURN ST SB,0,MERWILSN,
36.172643,,1SJAMNM,-86.773761,,,,N 1ST ST & MAIN ST,N 1ST ST & JAMES ROBERTSON PKWY NB,0,1SJAMNM,
36.180106,,BUC15AWN,-86.808642,,,,BUCHANAN ST & 15TH AV N,BUCHANAN ST & 15TH AVE N WB,0,BUC15AWN,
36.19201,,DICRICSN,-86.772771,,,,DICKERSON PK & RICHARDSON AV,DICKERSON PIKE & RICHARDSON AVE SB,0,DICRICSN,
36.19312,,GXODOUGN,-86.744077,,,,,DOUGLAS STATION OUTBOUND,0,GXODOUGN,
36.149997,,CXIWTBRG,-86.858261,,,,,WHITE BRIDGE STATION INBOUND,0,CXIWTBRG,
36.157887,,11APORNN,-86.786591,,,,302 11TH AVE & PORTER ST,11TH AVE & PORTER ST NB,0,11APORNN,
36.07863,,HARDANWN,-86.745025,,,,,HARDING PL & DANBY DR WB,0,HARDANWN,
36.143875,,WES30AWN,-86.814169,,,,STATE HWY 1 & WEST END AVE,WEST END AVE & 30TH AVE WB,0,WES30AWN,
36.231449,,EDBCIF,-86.780378,,,,,EWING LN & BRICK CHURCH PIKE EB,0,EDBCIF,
36.196629,,LISMARNF,-86.762686,,,,,LISCHEY AVE & MARIE ST NB,0,LISMARNF,
36.010319,,MURFEREF,-86.543967,,,,5544 USHY 41 & FERGUS RD,MURFREESBORO PK & FERGUS RD,0,MURFEREF,
36.142676,,21AMEDNN,-86.79995,,,,21ST AV S & GARLAND AV,21ST AVE S & MEDICAL CENTER DR NB,0,21AMEDNN,
36.242445,,BRIMASSF,-86.780584,,,,,BRICK CHURCH PIKE & MASONWOOD DR SB,0,BRIMASSF,
35.86946,,BRONORNF,-86.415077,,,,,BROAD ST & NORTHFIELD BLVD NB,0,BRONORNF,
36.121384,,HARLYNWF,-86.852753,,,,HARDING PK & GARDNER DR,HARDING PIKE & LYNNWOOD BLVD WB,0,HARLYNWF,
36.151061,,20AWESNN,-86.799021,,,,20TH AV S & WEST END AV,20TH AVE S & WEST END AVE NB,0,20AWESNN,
36.133289,,BILTAPTS,-86.701186,,,,510 GLASTONBURY RD & BRILEY PKWY,BILTMORE APARTMENTS AT GLASTONBURY & MASSMAN,0,BILTAPTS,
36.158874,,CXO17AVE,-86.798114,,,,CHARLOTTE AV & 17TH AV N,17TH AVE STATION OUTBOUND,0,CXO17AVE,
36.055201,,MXOZELID,-86.642465,,,,,ZELIDA STATION OUTBOUND,0,MXOZELID,
36.18533,,LEBJACEM,-86.636017,,,,,LEBANON PIKE & JACKSON DOWNS BLVD E,0,LEBJACEM,
36.158381,,40ACLISN,-86.834411,,,,40 AVE & CLIFTON,40TH AVE N & CLIFTON AVE SB,0,40ACLISN,
36.21153,,OPRYHMAG,-86.692312,,,,MAGNOLIA & DRIVEWAY,OPRYLAND HOTEL MAGNOLIA ENTRANCE,0,OPRYHMAG,
36.182108,,LEBJACEF,-86.640891,,,,LEBANON PK & JACKSON DOWNS BLVD,LEBANON PIKE & JACKSON DOWNS BLV D,0,LEBJACEF,
36.184783,,MERARRNN,-86.768292,,,,,MERIDIAN ST & ARRINGTON ST NB,0,MERARRNN,
36.068959,,BAUBELWN,-86.941341,,,,BAUGH RD & BELLEVUE RD,BAUGH RD & BELLVUE RD WB,0,BAUBELWN,
36.080171,,MURSHISM,-86.645483,,,,MURFREESBORO & MORTWAY,MURFREESBORO PIKE & SHIAWAY DR SB,0,MURSHISM,
36.178358,,DELGARSM,-86.79667,,,,DELTA AV & PRIVATE,DELTA AVE & GARFIELD ST SB,0,DELGARSM,
36.179338,,DELGARSF,-86.798082,,,,,DELTA AVE & GARFIELD ST SB,0,DELGARSF,
36.142833,,WES31AWN,-86.815399,,,,WEST END AV & 31ST AV S,WEST END AVE & 31ST AVE N WB,0,WES31AWN,
36.098019,,NXOVERTS,-86.738758,,,,US HWY 31 ALT & VERITAS ST,VERITAS STATION OUTBOUND,0,NXOVERTS,
36.069071,,BAUSHEWN,-86.937434,,,,734 BAUGH RD,BAUGH RD & SHEFFIELD SQ WB,0,BAUSHEWN,
36.14195,,EDGPEDWF,-86.783867,,,,,EDGE HILL AVE & PEDWALK WB,0,EDGPEDWF,
36.253681,,GALEMMSN,-86.716497,,,,S GALLATIN PK & EMMITT AV,S GALLATIN PIKE & EMMITT AVE SB,0,GALEMMSN,
36.237828,0,WALTPR,-86.724696,,,,,WALTON LN P&R,0,WALTPR,
36.145988,,MUREXPWN,-86.753606,,,,322 MURFREESBORO PIKE & LAFAYETTE ST,MURFREESBORO PIKE & EXPRESSWAY PARK,0,MUREXPWN,
36.140666,,WESACKEN,-86.817509,,,,,WEST END AVE & ACKLEN PARK DR EB,0,WESACKEN,
36.130649,,MASKIPNF,-86.700083,,,,,MASSMAN DR & KIPLING DR NB,0,MASKIPNF,
36.168367,,HAR8AWF,-86.788962,,,,,HARRISON ST & 8TH AVE N WB,0,HAR8AWF,
36.182047,,26ASALNN,-86.819382,,,,,26TH AVE N & SALEM MASON DR NB,0,26ASALNN,
36.149914,,28APARNN,-86.817829,,,,,28TH AVE & PARK PLZ NB,0,28APARNN,
36.144732,,WES29AWN,-86.813131,,,,WEST END AV & 29TH AV N,WEST END AVE & 29TH AVE S WB,0,WES29AWN,
36.156137,,NXOPBODY,-86.774063,,,,4 AVE & PEABODY,PEABODY STATION OUTBOUND,0,NXOPBODY,
36.179616,,LEBDANNN,-86.64385,,,,LEBANON PK & DANYACREST AV,LEBANON PIKE & DANYACREST AVE NB,0,LEBDANNN,
36.058921,,NOLTUSNN,-86.716075,,,,NOLENSVILLE PK & TUSCULUM RD,NOLENSVILLE PIKE & TUSCULUM RD NB,0,NOLTUSNN,
36.104763,,GRAMAPNF,-86.79612,,,,,GRANNYWHITE PIKE & MAPLEHURST AVE N,0,GRAMAPNF,
36.15769,,10BDWYI,-86.784654,,,,934 US HWY 70 & 10TH AVE S,10TH & BROADWAY INBOUND,0,10BDWYI,
36.193468,,METATHWM,-86.804342,,,,METRO CENTER & ATHENS WAY,METROCENTER & ATHENS WAY WB,0,METATHWM,
36.139136,,8AVHAMNN,-86.778286,,,,8TH AVENUE S & LYNWOOD,8TH AVE S & HAMILTON AVE NB,0,8AVHAMNN,
36.163796,,4AVCHUSN,-86.779079,,,,,4TH AVE N & CHURCH ST SB,0,4AVCHUSN,
36.068909,,BAUSHEEF,-86.937969,,,,,BAUGH RD & SHEFFIELD SQ EB,0,BAUSHEEF,
36.211493,,WHINOCWN,-86.797496,,,,WHITES CREEK PK & E NOCTURNE DR,WHITES CREEK PIKE & W NOCTURNE DR N,0,WHINOCWN,
36.184605,,MCGKNONN,-86.676704,,,,MCGAVOCK PIKE & DRIVEWAY,MCGAVOCK PIKE  & KNOBDALE RD NB,0,MCGKNONN,
36.156039,,KOR6AVWN,-86.77717,,,,,KOREAN VETS BLVD & 6TH AVE WB,0,KOR6AVWN,
36.256403,,GXOMADWG,-86.71417,,,,US HWY 31E & GALLATIN PIKE S,MADISON STATION OUTBOUND,0,GXOMADWG,
36.203604,,BUEYOUNF,-86.820939,,,,,BUENA VISTA PK & YOUNGS LN NB,0,BUEYOUNF,
36.152213,,BRO18AWN,-86.795242,,,,BROADWAY & 18TH AV S,BROADWAY AVE & 18TH AVE S WB,0,BRO18AWN,
36.189793,,PORMC_SF,-86.728706,,,,,PORTER RD & MCKENNIE AVE SB,0,PORMC_SF,
36.130963,,NXOWDCST,-86.756057,,,,NOLENSVILLE & WOODY CREST,WOODYCREST STATION OUTBOUND,0,NXOWDCST,
36.130158,,21ABLANN,-86.80197,,,,21ST AV S & BLAIR BV,21ST AVE S & BLAIR BLVD NB,0,21ABLANN,
36.203971,,MCGGLEWN,-86.726799,,,,,MCGAVOCK PIKE & GLENMEADE DR WB,0,MCGGLEWN,
36.145794,,MURALUEF,-86.753562,,,,,MURFREESBORO PIKE & ALUMNI DR EB,0,MURALUEF,
36.18754,,MCK18AEN,-86.81234,,,,,MCKINNEY ST & 18TH AVE N EB,0,MCK18AEN,
36.159231,,DRDPEANF,-86.800963,,,,18TH AVE N & 18TH AVE,DR DB TODD JR BLVD & PEARL ST NB,0,DRDPEANF,
36.078807,,H70BAPWM,-86.951223,,,,HWY 70 S & BAPTIST BELLEVUE MEDICAL CENTER,HWY 70 S & BAPTIST BELLEVUE MEDICAL WB,0,H70BAPWM,
36.253312,,NEEHOWEN,-86.698326,,,,,NEELY'S BEND RD & HOWSE AVE EB,0,NEEHOWEN,
36.128444,,12AASHSF,-86.789105,,,,12TH AV S & ASHWOOD AV,12TH AVE S & ASHWOOD AVE SB,0,12AASHSF,
36.151711,,FAILEWEN,-86.758107,,,,FAIN ST & UNKNOWN AL,FAIN ST & LEWIS ST EB,0,FAILEWEN,
36.133909,,ACK12AWN,-86.78869,,,,,ACKLEN AVE & S 12TH AVE NB,0,ACK12AWN,
36.166411,,DRDALBSN,-86.805459,,,,,DR DB TODD JR BLVD & ALBION SB,0,DRDALBSN,
36.132811,,12ACALSN,-86.788803,,,,12TH AV S & CALDWELL AV,12TH AVE S & CALDWELL AVE SB,0,12ACALSN,
36.216458,,WHIMALSF,-86.802178,,,,,WHITES CREEK PIKE & MALTA DR SB,0,WHIMALSF,
36.129996,,21SBLASF,-86.802285,,,,21ST AV S & BLAIR BV,21ST AVE S & BLAIR SB,0,21SBLASF,
36.152151,,BRO18AEN,-86.795148,,,,BROADWAY & 18 AVE,BROADWAY AVE & 18TH AVE S EB,0,BRO18AEN,
36.153539,,28ACHASF,-86.818245,,,,,28TH AVE & CHARLOTTE AVE SB,0,28ACHASF,
36.075055,,NOLFLOSN,-86.725073,,,,NOLENSVILLE PK & FLORA MAXWELL RD,NOLENSVILLE PIKE & FLORA MAXWELL RD,0,NOLFLOSN,
36.157518,,MORILLSN,-86.853558,,,,MORROW RD & UNKNOWN AL,MORROW RD & ILLINOIS AVE SB,0,MORILLSN,
36.1705,,WOOINTWN,-86.76841,,,,WOODLAND ST & I 24,WOODLAND ST & INTERSTATE DR WB,0,WOOINTWN,
36.111799,,THOEIREF,-86.762652,,,,THOMPSON & E IRIS DR,THOMPSON LN & EAST IRIS DR,0,THOEIREF,
36.141531,,31AVANWF,-86.814575,,,,,31ST AVE & VANDERBILT PL WB,0,31AVANWF,
36.087288,,HARANTWF,-86.692935,,,,HARDING PL & ANTIOCH PIKE,HARDING PL & ANTIOCH PK WB,0,HARANTWF,
36.163214,,2AVCOMNN,-86.775995,,,,2ND AV N & COMMERCE ST,2ND AVE N & COMMERCE ST NB,0,2AVCOMNN,
36.147948,,21ABROSF,-86.799364,,,,21ST AVE S & BROADWAY,21ST AVE & BROADWAY AVE SB,0,21ABROSF,
36.185686,,MCGFERSF,-86.676287,,,,MCGAVOCK PIKE & DRIVEWAY,MCGAVOCK PIKE & FERNBROOK LN SB,0,MCGFERSF,
36.108423,,POWPOWSN,-86.765856,,,,,POWELL AVE & POWELL PL SB,0,POWPOWSN,
36.186902,,CLE3RDEN,-86.766241,,,,,CLEVELAND ST & N 3RD ST EB,0,CLE3RDEN,
36.168499,,HERWARWN,-86.793355,,,,,HERMAN ST & WARREN ST WB,0,HERWARWN,
36.125798,,FRACRASF,-86.777029,,,,US HWY 31 & STATE HWY 6,FRANKLIN PK & CRAIGHEAD ST SB,0,FRACRASF,
36.176735,,16SWOONN,-86.741876,,,,S 16TH ST & WOODLAND ST,16TH ST & WOODLAND ST NB,0,16SWOONN,
36.14382,,ELMTWIEM,-86.735244,,,,,ELM HILL PIKE & TWIN ELMS CT EB,0,ELMTWIEM,
36.196417,,LISMARSF,-86.762781,,,,,LISCHEY AVE & MARIE ST SB,0,LISMARSF,
36.195483,,LEBBONNN,-86.621651,,,,LEBANON PK & BONNA SPRING DR,LEBANON PIKE & BONNA SPRING DR NB,0,LEBBONNN,
36.153719,,HERFAIEF,-86.755527,,,,,HERMITAGE AVE & FAIRFIELD AVE EB,0,HERFAIEF,
36.092459,,H70VAUEN,-86.885503,,,,HIGHWAY 70 S & VAUGHNS GAP RD,HWY 70 S & VAUGHN'S GAP RD EB,0,H70VAUEN,
36.177876,,ROSCHESF,-86.794656,,,,US HWY 41 ALT & STATE HWY 12,ROSA PARKS & CHEATHAM PL SB,0,ROSCHESF,
36.173766,,COCDBTWN,-86.808214,,,,COCKRILL ST & DR D B TODD JR BV,COCKRILL ST & DR DB TODD JR BLVD WB,0,COCDBTWN,
36.069814,,EDMDURNN,-86.735153,,,,EDMONDSON PIKE & WATSONWOOD DR,EDMONDOSN PIKE & DURRETT DR NB,0,EDMDURNN,
36.182529,,CAMCOUNN,-86.847711,,,,CAMILLA CALDWELL LN & COUNTY HOSPITAL RD,CAMILLA CALDWELL LN & COUNTY HOSPIT,0,CAMCOUNN,
36.115166,,GRABATNN,-86.79194,,,,GRANNY WHITE PK & BATTLEFIELD DR,GRANNY WHITE PIKE & BATTLEFIELD DR,0,GRABATNN,
36.507216,,SPFD1,-86.886086,,,,,SPRINGFIELD D/T P & R,0,SPFD1,
36.483692,,SPFD2,-86.887631,,,,,SPRINGFIELD WAL MART P & R,0,SPFD2,
36.138427,,12ASUMSF,-86.787895,,,,12TH AV S & SUMMIT AV,12TH AVE S & SUMMIT AVE SB,0,12ASUMSF,
36.221753,,REVPAINS,-86.80755,,,,,REVALS DR & PAIGE CT EB,0,REVPAINS,
36.153661,,11ALAUSF,-86.784135,,,,279 11TH AVE & LAUREL ST,11TH AVE & LAUREL ST SB,0,11ALAUSF,
36.203505,,ANDRVWNN,-86.606656,,,,ANDREW JACKSON PW & RACHELS VIEW,ANDREW JACKSON PKWY & RACHELS VIEW NB,0,ANDRVWNN,
36.148085,,WES24AWN,-86.806291,,,,WEST END AVE & 24 AVE,WEST END AVE & 24TH AVE S WB,0,WES24AWN,
36.083418,,LINWALEN,-86.704722,,,,LINBAR DR & LARGO DR,LINBAR DR & WALLACE RD,0,LINWALEN,
36.154046,,HERFAIWF,-86.756457,,,,,HERMITAGE AVE & FAIRFIELD AVE WB,0,HERFAIWF,
36.199911,,GREMAIEM,-86.803637,,,,,GREAT CIRCLE RD & MAINSTREAM DR EB,0,GREMAIEM,
36.144151,,ELMTWIWF,-86.738014,,,,,ELM HILL PIKE & TWIN ELMS CT WB,0,ELMTWIWF,
36.125659,,HARKENEN,-86.8465,,,,HARDING PK & KENNER AV,WEST END AVE & KENNER AVE EB,0,HARKENEN,
36.189279,,LISEVASN,-86.764073,,,,,LISCHEY AVE & EVANSTON AVE SB,0,LISEVASN,
36.252894,,GALEMMNN,-86.71689,,,,,GALLATIN PIKE & EMMITT AVE NB,0,GALEMMNN,
36.07497,,SAWPLASM,-86.946076,,,,,SAWYER BROWN RD & PLANTATION CT SB,0,SAWPLASM,
36.191684,,DICRICNN,-86.772668,,,,DICKERSON PK & RICHARDSON AV,DICKERSON PIKE & RICHARDSON AVE NB,0,DICRICNN,
36.163744,,21AHERSN,-86.808549,,,,,21ST AVE & HERMOSA ST SB,0,21AHERSN,
36.149861,,28APARSF,-86.817851,,,,,28TH AVE & PARK PLZ SB,0,28APARSF,
36.144663,,WHIBURNN,-86.857809,,,,WHITEBRIDGE RD & BURGESS AVE,WHITE BRIDGE PIKE & BURGESS AVE NB,0,WHIBURNN,
36.17955,,GXOFIVEF,-86.750132,,,,,FIVE POINTS STATION OUTBOUND,0,GXOFIVEF,
36.239673,,VAISPEEM,-86.768103,,,,VAILVIEW DR & OAKVIEW DR,VAILVIEW DR & SPEARS RD EB,0,VAISPEEM,
36.203663,,GXIEHILF,-86.738539,,,,,EAST HILL STATION INBOUND,0,GXIEHILF,
36.221328,,DICPINSN,-86.761926,,,,DICKERSON PK & PINE RIDGE DR,DICKERSON PIKE & PINE RIDGE DR SB,0,DICPINSN,
36.167813,,JEFTEMWN,-86.820382,,,,,JEFFERSON ST & ED TEMPLE BLVD WB,0,JEFTEMWN,
36.121603,,BRABERNM,-86.765494,,,,BRANSFORD AV & LIGON DR,BRANSFORD AVE & BERRY RD NB,0,BRABERNM,
36.161813,,ALBALAEN,-86.835546,,,,PRESIOR DR & PRESLOR DR,ALBION ST & ALAMEDA AVE EB,0,ALBALAEN,
36.111281,,HILGRASN,-86.811431,,,,,HILLSBORO PIKE & GRAYBAR LN SB,0,HILGRASN,
36.189829,,18AKELNM,-86.812158,,,,18TH AV N & KELLOW ST,18TH AVE N & KELLOW ST NB,0,18AKELNM,
36.06743,,MURMORSN,-86.631419,,,,,MURFREESBORO PIKE & MORRIS GENTRY B,0,MURMORSN,
36.267449,,MAYDUPSN,-86.695156,,,,,MAY DR & N. DUPONT AVE SB,0,MAYDUPSN,
36.128373,,21ALINNN,-86.803106,,,,21ST AV S & LINDEN AV,21ST AVE S & LINDEN AVE NB,0,21ALINNN,
35.973619,,MURMCNNM,-86.510809,,,,,MURFREESBORO PIKE & MCNICKLE DR NB,0,MURMCNNM,
36.135345,,21AACKSF,-86.801115,,,,21ST AV S & ACKLEN AV,21ST AVE S & ACKLEN AVE SB,0,21AACKSF,
36.055266,,EDMOAKSN,-86.742703,,,,EDMONDSON PIKE & MCMURRAY DR,EDMONDSON PIKE & OAKLEY DR SB,0,EDMOAKSN,
36.167968,,JON29AWF,-86.821943,,,,,JOHN A MERRITT BLVD & 29TH AVE WB,0,JON29AWF,
36.204656,,LEBBELSF,-86.614804,,,,,LEBANON PIKE & BELINDA DR SB,0,LEBBELSF,
36.086253,,NOLELYSN,-86.729671,,,,NOLENSVILLE & ELYSIAN FIELDS,ELYSIAN FIELDS STATION OUTBOUND,0,NOLELYSN,
36.155912,,HERMIDSN,-86.767211,,,,,HERMITAGE AVE & MIDDLETON ST SB,0,HERMIDSN,
36.077373,,H70FOREM,-86.912033,,,,,HWY 70 & FOREST PARK APARTMENTS EB,0,H70FOREM,
36.150717,,MASMAPWF,-86.709254,,,,,MASSMAN DR & MAPLELEAF DR WB,0,MASMAPWF,
36.231074,,EWIEWIEN,-86.77692,,,,,EWING DR & EWING LN EB,0,EWIEWIEN,
36.098669,,MURHAREN,-86.659698,,,,MURFREESBORO & TOWN PARK DR,MURFREESBORO PIKE & HARDING PL EB,0,MURHAREN,
36.17017,,5AVHARSN,-86.784767,,,,,5TH AVE & HARRISON ST SB,0,5AVHARSN,
36.161991,,BRO2AWN,-86.775075,,,,BROADWAY & 2ND AV N,BROADWAY AVE & 2ND AVE N WB,0,BRO2AWN,
36.159518,,DEM3AEN,-86.774728,,,,DEMONBREUN ST & 3RD AVE S,DEMONBREUN ST & 3RD AVE EB,0,DEM3AEN,
36.160672,,BAT31AEN,-86.822926,,,,BATAVIA ST & 31ST AV N,BATAVIA ST & 31ST AVE N EB,0,BAT31AEN,
36.158394,,BRO9AWF,-86.783577,,,,BROADWAY & 10TH AV N,BROADWAY AVE & 9TH AVE S WB,0,BRO9AWF,
36.152044,,11A12ASN,-86.784228,,,,11TH AVE S & 12TH AVE S,11TH AVE & 12TH AVE NB,0,11A12ASN,
36.151668,,ELMROYEN,-86.677224,,,,,ELM HILL PIKE & ROYAL PKWY EB,0,ELMROYEN,
36.175431,,16SHOLNN,-86.742078,,,,,S 16TH ST & HOLLY ST NB,0,16SHOLNN,
36.131479,0,BRABENSF,-86.768385,,,,,BRANSFORD AVE & BENTON AVE SB,0,BRABENSF,
36.152821,,CXOSYLHE,-86.828059,,,,3572 CHARLOTTE AVE & 37TH AVE,37TH AVE/SYLVAN HEIGHTS STATION OUTBOUND,0,CXOSYLHE,
36.16779,,SHE5SEM,-86.761605,,,,5 ST & SHELBY,SHELBY AVE & S 5TH ST EB,0,SHE5SEM,
36.150495,,ELMWANWN,-86.696659,,,,ELM HILL PK & WANDA DR,ELM HILL PIKE & WANDA DR WB,0,ELMWANWN,
36.150716,,ELMWANWM,-86.693687,,,,,ELM HILL PIKE & WANDA DR WB,0,ELMWANWM,
36.180536,,BUC10AWM,-86.802572,,,,BUCHANAN ST & 10TH AV N,BUCHANAN ST & 10TH AVE N WB,0,BUC10AWM,
36.076513,,NOLEDMSF,-86.725543,,,,4201 NOLENSVILLE PIKE & EDMONSON/WALLCE,NOLENSVILLE PIKE & EDMONSON PIKE SB,0,NOLEDMSF,
36.167868,,SHE5SWN,-86.761885,,,,5 ST & SHELBY,SHELBY AVE & S 5TH ST WB,0,SHE5SWN,
36.051442,,OCANOLEN,-86.714537,,,,,OCALA DR & NOLENSVILLE PIKE EB,0,OCANOLEN,
36.217862,,DICLORNF,-86.762922,,,,DICKERSON PK & LORRAINE AV,DICKERSON PIKE & LORRAINE AVE NB,0,DICLORNF,
36.158492,,CLI34AEN,-86.827075,,,,CLIFTON AV & 34TH AV N,CLIFTON AVE & 34TH AVE N EB,0,CLI34AEN,
36.137677,,12AARGNN,-86.788074,,,,12TH AV S & ARGYLE AV,12TH AVE S & ARGYLE AVE NB,0,12AARGNN,
36.189552,,PORCARNF,-86.728684,,,,PORTER RD & GREENWOOD AV,PORTER RD & CARTER AVE NB,0,PORCARNF,
36.088347,,TROGRASM,-86.751842,,,,,TROUSDALE DR & GRASMERE PARK SB,0,TROGRASM,
36.085981,,TROGRASS,-86.754656,,,,,TROUSDALE DR & GRASSMERE PL SB,0,TROGRASS,
36.221037,,REVWHIWN,-86.804929,,,,REVELS DR & STATE HWY 65,REVELS DR & WHITES CREEK PIKE WB,0,REVWHIWN,
36.18414,,CLA23AEN,-86.814736,,,,,CLARKSVILLE PIKE & 23RD AVE N EB,0,CLA23AEN,
36.152325,,28ACITNN,-86.818473,,,,,28TH AVE N & CITY BLVD NB,0,28ACITNN,
36.109932,,POWBRASF,-86.766778,,,,,POWELL AVE & BRANSFORD AVE SB,0,POWBRASF,
36.145617,,ELMAIRWF,-86.706264,,,,,ELM HILL PIKE & AIR LANE DR WB,0,ELMAIRWF,
36.146839,,ELMAIRWM,-86.704906,,,,ELM HILL PK & AIR LANE DR,ELM HILL PIKE & AIR LANE DR WB,0,ELMAIRWM,
36.089893,,NXINVZOO,-86.73325,,,,NOLENSVILLE PK & ZOO RD,NASHVILLE ZOO STATION INBOUND,0,NXINVZOO,
36.153558,,HERDECEN,-86.753688,,,,,HERMITAGE AVE & DECATUR ST EB,0,HERDECEN,
36.272629,,ANDMAYWN,-86.69449,,,,,ANDERSON RD & MAY DR WB,0,ANDMAYWN,
36.177876,,3AMONSN,-86.786595,,,,3RD AV N & MONROE ST,3RD AVE N & MONROE ST SB,0,3AMONSN,
36.188321,,DOW25AEN,-86.816946,,,,,DOWLAN ST & 25TH AVE EB,0,DOW25AEN,
36.178366,,ARTJANNN,-86.802202,,,,,ARTHUR AVE & JANE ST NB,0,ARTJANNN,
36.170207,,SHE17SEN,-86.74041,,,,,SHELBY AVE & S 17TH ST EB,0,SHE17SEN,
36.165924,,ALB21AWN,-86.808661,,,,ALBION & 21 ST AVE N,ALBION ST & 21ST AVE N WB,0,ALB21AWN,
35.96741,,MURKENSN,-86.505953,,,,,MURFREESBORO PIKE & KEN PILKERTON D,0,MURKENSN,
36.144284,,21AEDGSN,-86.799849,,,,21ST AV S & EDGEHILL AV,21ST AVE S & EDGEHILL AVE SB,0,21AEDGSN,
36.152723,,8ADRENN,-86.779259,,,,8TH AV S & DREXEL ST,8TH AVE S & DREXELL ST NB,0,8ADRENN,
36.170314,,SHE17SWN,-86.740096,,,,,SHELBY AVE & S 17TH ST WB,0,SHE17SWN,
36.188429,,LISVERNN,-86.764075,,,,,LISCHEY AVE & VERNON WINFREY AVE NB,0,LISVERNN,
36.12719,,THOGOOEN,-86.700762,,,,,THOMPSON PL & GOODBAR DR EB,0,THOGOOEN,
36.192831,,HAMHYDWN,-86.832144,,,,S HAMILTON RD & CLARKSVILLE HWY,S HAMILTON RD & N HYDES FERRY RD WB,0,HAMHYDWN,
36.168277,,JAMGAYSN,-86.782254,,,,US HWY 31 & GAY ST,JAMES ROBERTSON PKWY & GAY ST SB,0,JAMGAYSN,
36.17886,,N16GARNN,-86.741594,,,,N 16TH ST & GARTLAND AV,16TH ST N & GARTLAND AVE NB,0,N16GARNN,
36.220147,,KINMEAEN,-86.825067,,,,,KINGS LN & MEADOW HILL DR EB,0,KINMEAEN,
36.182449,,CAMCOUSF,-86.847812,,,,,CAMILLA CALDWELL LN & COUNTY HOSPITAL RD SB,0,CAMCOUSF,
36.197588,,ANDTYLSN,-86.608678,,,,ANDREW JACKSON PW & RACHELS VIEW,ANDREW JACKSON PKWY & TYLER DR SB,0,ANDTYLSN,
36.182324,,16SSTRSN,-86.741177,,,,N 16TH ST & PORTER RD,N 16TH ST & STRATTON AVE SB,0,16SSTRSN,
36.190971,,HYDMANNN,-86.838573,,,,HYDES FERRY RD & MANCHESTER AV,JOHN MALLETTE & MANCHESTER AVE NB,0,HYDMANNN,
36.144947,,CXIAMERI,-86.871962,,,,6315 CHARLOTTE PIKE,AMERICAN STATION INBOUND,0,CXIAMERI,
36.236922,,MOOCRINN,-86.773349,,,,,MOOREWOOD DR & CRISLYNNDALE DR NB,0,MOOCRINN,
36.199384,,MCSMJ,-86.517,,,,,STAR MT. JULIET STATION,0,MCSMJ,
36.22888,,GALBROSF,-86.725281,,,,,GALLATIN PIKE & BROADMOOR SB,0,GALBROSF,
36.19922,,MAIGRAEN,-86.80876,,,,,MAINSTREAM DR & GREAT CIRCLE RD EB,0,MAIGRAEN,
36.138948,,CXOANNEX,-86.880902,,,,6606 CHARLOTTE PIKE & ANNEX AVE,ANNEX STATION OUTBOUND,0,CXOANNEX,
36.201481,,LEBTYLSN,-86.617733,,,,,LEBANON PIKE & TYLER DR S,0,LEBTYLSN,
36.179003,,11AWHESN,-86.803879,,,,,11TH AVE N & WHEELESS ST SB,0,11AWHESN,
36.085954,,TROELYNF,-86.75451,,,,,TROUSDALE DR & ELYSIAN FIELDS RD NB,0,TROELYNF,
36.22127,,DICPINNN,-86.761726,,,,DICKERSON PK & PINE RIDGE DR,DICKERSON PIKE & PINE RIDGE DR NB,0,DICPINNN,
36.125424,,21AWOOSN,-86.805563,,,,21ST AV S & WOODLAWN DR,21ST AVE S & WOODLAWN DR SB,0,21AWOOSN,
36.140894,,ANNCHAWM,-86.882835,,,,ANNEX & PREMIER,ANNEX AVE & CHARLOTTE PIKE WB,0,ANNCHAWM,
36.165766,,ALB21AEF,-86.80866,,,,ALBION ST & 21ST AV N,ALBION ST & 21ST AVE N EB,0,ALB21AEF,
36.168641,,LEBMUNEN,-86.656204,,,,LEBANON PK & MUNN LN,LEBANON PIKE & MUNN LN EB,0,LEBMUNEN,
36.074956,,NOLFLONN,-86.724751,,,,,NOLENSVILLE PIKE & FLORA MAXWELL RD,0,NOLFLONN,
36.061867,,NOLMCMSN,-86.716904,,,,,NOLENSVILLE PIKE & MCMURRAY DR SB,0,NOLMCMSN,
36.021879,,MURCITEN,-86.582799,,,,,MURFREESBORO PIKE & CITY HALL EB,0,MURCITEN,
36.193121,,GREVANEN,-86.791202,,,,,GREAT CIRCLE RD & VANTAGE WAY EB,0,GREVANEN,
36.14607,,WESNATEN,-86.809984,,,,WEST END AVE & NATCHEZ TRACE,WEST END AVE & NATCHEZ TR EB,0,WESNATEN,
36.180437,,BUC9AEN,-86.802526,,,,,BUCHANAN ST & 9TH AVE N EB,0,BUC9AEN,
36.082794,,TROTIMSF,-86.75813,,,,,TROUSDALE DR & TIMBER HILL DR SB,0,TROTIMSF,
36.246686,,MORBRISN,-86.773049,,,,,MOOREWOOD DR & BRICKMONT CT SB,0,MORBRISN,
36.161575,,28AHERNN,-86.819214,,,,,28TH AVE N & HERMAN ST NB,0,28AHERNN,
36.148685,,WES23AEN,-86.804611,,,,WEST END AV & 23RD AV N,WEST END AVE & 23RD AVE S EB,0,WES23AEN,
36.190265,,10APONNN,-86.806063,,,,2292 9TH AVE & 10TH AVE,10TH AVE N & PONDER PL NB,0,10APONNN,
36.225685,,GXOINGLN,-86.725413,,,,,INGLEWOOD STATION OUTBOUND,0,GXOINGLN,
36.150067,,8ADIVSN,-86.779301,,,,,8TH AVE S & DIVISION ST SB,0,8ADIVSN,
36.152335,,11A12ANM,-86.783785,,,,372 11TH AVE,11TH AVE & 12TH AVE NB,0,11A12ANM,
36.18565,,MCGFERNN,-86.676164,,,,MCGAVOCK PIKE & DRIVEWAY,MCGAVOCK PIKE  & FERNBROOK LN NB,0,MCGFERNN,
36.188494,,LEBHICSN,-86.629154,,,,,LEBANON PIKE & HICKORY HILL LN SB,0,LEBHICSN,
36.271947,,ARCANDNN,-86.687387,,,,,ARCHWOOD DR & ANDERSON LN NB,0,ARCANDNN,
36.184766,,MCGKNOSN,-86.676681,,,,,MCGAVOCK PIKE & KNOBDALE RD SB,0,MCGKNOSN,
36.188028,,14ACECSN,-86.810282,,,,14TH AVE N & CECILIA AVE,14TH AVE N & CECILIA ST SB,0,14ACECSN,
36.068821,,TODBELEN,-86.941555,,,,TODD PREIS DR & BELLEVUE RD,TODD PRIES DR & BELLEVUE RD EB,0,TODBELEN,
36.120286,,NXIPCHTR,-86.749767,,,,US HWY 31 ALT & NEWSOM ST,PEACHTREE STATION INBOUND,0,NXIPCHTR,
36.213771,,WHIFRANN,-86.799842,,,,WHITES CREEK PK & FRANCIS ST,WHITES CREEK PIKE & FRANCIS ST NB,0,WHIFRANN,
36.184747,,CLA24ANN,-86.815544,,,,CLARKSVILLE PK & 24TH AV N,CLARKSVILLE PIKE & 24TH AVE N NB,0,CLA24ANN,
36.178282,,25ADELNN,-86.816675,,,,25TH AV N & DELK AV,25TH AVE N & DELK AVE NB,0,25ADELNN,
36.169865,,S5SFATSN,-86.763587,,,,,S 5TH ST & FATHERLAND ST SB,0,S5SFATSN,
36.164714,,CHA7AEN,-86.784416,,,,,CHARLOTTE AVE & 7TH AVE N EB,0,CHA7AEN,
36.218721,,ROWCRONN,-86.818028,,,,,ROWAN DR & CROUCH DR NB,0,ROWCRONN,
36.133808,,GLAMASSN,-86.702296,,,,,GLASTONBURY RD & MASSMAN DR SB,0,GLAMASSN,
36.066634,,NOLNORNN,-86.717764,,,,,NOLENSVILLE PIKE & NORTHCREST DR NB,0,NOLNORNN,
36.183095,,3AGARNN,-86.789823,,,,3RD AV N & GARFIELD ST,3RD AVE N & GARFIELD ST NB,0,3AGARNN,
36.147311,,21AGRASF,-86.799491,,,,21ST AV S & GRAND AV,21ST AVE S & GRAND AVE SB,0,21AGRASF,
36.218661,,KINCLAW,-86.83646,,,,KINGS LN & PEWITT RD,KINGS LN & CLARKSVILLE PK WB,0,KINCLAW,
36.15189,,FAICLIE,-86.760889,,,,FAIN ST & UNKNOWN AL,FAIN ST & CLAIBORNE ST EB,0,FAICLIE,
36.084661,,HWYPEREN,-86.894509,,,,HIGHWAY 70 S & 5TH AV N,HWY 70 S & PERCY WARNER BLVD EB,0,HWYPEREN,
36.135293,,WHIVINNN,-86.858198,,,,WHITE BRIDGE PK & VINE RIDGE DR,WHITE BRIDGE PIKE & VINERIDGE DR NB,0,WHIVINNN,
36.165856,,JACDBTWN,-86.805081,,,,JACKSON ST & 18TH AVE N,JACKSON ST & DR D B TODD JR BLVD WB,0,JACDBTWN,
36.155939,,CXOCENTE,-86.809465,,,,2274 CHARLOTTE AVE & 23RD AVE,23RD AVE / CENTENNIAL STATION OUTBOUND,0,CXOCENTE,
36.194476,,LISDOUNF,-86.763076,,,,,LISCHEY AVE & DOUGLAS AVE NB,0,LISDOUNF,
36.119637,,HILSTONF,-86.808689,,,,US HWY 431 & STOKES LN,HILLSBORO PIKE & STOKES LN NB,0,HILSTONF,
36.125596,,12ACARSF,-86.789441,,,,,12TH AVE & CARUTHERS AVE SB,0,12ACARSF,
36.100465,,HARPAGSN,-86.871159,,,,,HARDING PIKE & PAGE RD SB,0,HARPAGSN,
36.153209,,HERLITEN,-86.749504,,,,,HERMITAGE AVE & LITTLE GREEN ST EB,0,HERLITEN,
36.153405,,MXOFULTN,-86.772328,,,,,FULTON STATION OUTBOUND,0,MXOFULTN,
36.161082,,TEN49AWN,-86.846414,,,,TENNESSEE AV & 49TH AV NORTH,TENNESSEE AVE & 49TH AVE N WB,0,TEN49AWN,
36.075508,,H70BELWN,-86.940147,,,,HIGHWAY 70 S & BELLEVUE RD,HWY 70 S & BELLEVUE RD WB,0,H70BELWN,
36.178107,,MCGLINNF,-86.678295,,,,MCGAVOCK PIKE & PARK DR,MCGAVOCK PIKE & LINCOYA DR NB,0,MCGLINNF,
36.166554,,MCC5_12,-86.781973,,,,UNNAMED & 5TH AVE N,CENTRAL 5TH AVE - BAY 12,0,MCC5_12,
36.16659,,MCC5_11,-86.781996,,,,MCC - BAY 11 & 5TH AVE N,CENTRAL 5TH AVE - BAY 11,0,MCC5_11,
36.16667,,MCC5_10,-86.78167,,,,UNNAMED & 5TH AVE N,CENTRAL 5TH AVE - BAY 10,0,MCC5_10,
36.168599,,HER10AEN,-86.792855,,,,HERMAN ST & WARREN ST,HERMAN ST & 10TH AVE N EB,0,HER10AEN,
36.181789,,16SSTRNN,-86.741144,,,,,N 16TH ST & STRATTON AVE NB,0,16SSTRNN,
36.17701,,SPR1SWN,-86.774366,,,,,SPRING ST & N 1ST ST WB,0,SPR1SWN,
36.153162,,WES18AWN,-86.795938,,,,STATE HWY 1 & WEST END AVE,WEST END AVE & 18TH AVE N WB,0,WES18AWN,
36.068898,,BAUCOLEN,-86.933217,,,,BAUGH RD & COLICE JEANNE RD,BAUGH RD & COLLICE JEANNE RD EB,0,BAUCOLEN,
36.119425,,FRABERNF,-86.774642,,,,,FRANKLIN PK & BERRY RD NB,0,FRABERNF,
36.165439,,UNI3AWF,-86.779084,,,,,UNION ST & 3RD AVE N WB,0,UNI3AWF,
36.208022,,LEBHIGNF,-86.611178,,,,LEBANON PK & HIGHLAND VIEW,LEBANON PIKE & HIGHLAND VIEW DR NB,0,LEBHIGNF,
36.045072,,EDMBRINN,-86.743862,,,,,EDMONDSON PK & BRIGHTON VILLAGE DR,0,EDMBRINN,
36.170981,,JEF14TWM,-86.800988,,,,JEFFERSON & 14 AVE,JEFFERSON ST & 14TH AVE N WB,0,JEF14TWM,
35.86327,,NWBWCLSN,-86.409018,,,,,NW BROAD ST & W CLARK BLVD SB,0,NWBWCLSN,
36.151248,,WES20AEN,-86.799394,,,,,WEST END AVE & 20TH AVE S EB,0,WES20AEN,
36.216258,,WHAWALEF,-86.822127,,,,W. HAMILTON & MALLARD DRIVE,W. HAMILTON AVE & MALLARD DR EB,0,WHAWALEF,
36.152481,,LAF5AEN,-86.773315,,,,LAFAYETTE ST & 5TH AV S,GREYHOUND STATION - LAFAYETTE ST & 5TH AVE S,0,LAF5AEN,
36.17411,,2AVJUNSF,-86.782895,,,,2ND AV N & JACKSON ST,2ND AVE N & JUNIOR GILLIAM WAY SB,0,2AVJUNSF,
36.160984,,TEN49AEN,-86.846571,,,,,TENNESSEE AVE & 49TH AVE N EB,0,TEN49AEN,
36.075472,,H70BELEN,-86.940654,,,,,HWY 70 S & BELLEVUE RD EB,0,H70BELEN,
36.173126,,JEF9AWN,-86.792339,,,,,JEFFERSON ST & 9TH AVE N WB,0,JEF9AWN,
36.187276,,CLAEDSM,-86.820545,,,,,CLARKSVILLE PIKE & ED TEMPLE BLVD S,0,CLAEDSM,
36.25148,,NEETAHEN,-86.691662,,,,,NEELYS BEND RD & TAHLENA AVE EB,0,NEETAHEN,
36.247281,,VILBRIEM,-86.777429,,,,VILLAGE TL & MOONLIGHT DR,VILLAGE TRL & BRICK CHURCH PIKE EB,0,VILBRIEM,
36.141554,,MXIFOSTE,-86.740261,,,,,FOSTER STATION INBOUND,0,MXIFOSTE,
36.167799,,JEF27AEN,-86.818981,,,,JEFFERSON ST & 27TH AVE N,JEFFERSON ST & 27TH AVE EB,0,JEF27AEN,
36.182942,,EASBENWN,-86.738979,,,,,EASTLAND AVE & BENSON ST WB,0,EASBENWN,
36.212166,,TIMFAISN,-86.844784,,,,,TIMOTHY DR & FAIRVIEW DR SB,0,TIMFAISN,
36.279747,,GXOEDGEF,-86.708554,,,,,EDGEMEADE STATION OUTBOUND,0,GXOEDGEF,
36.141838,,EDG10AEN,-86.78351,,,,,EDGEHILL AVE & 10TH AVE S EB,0,EDG10AEN,
36.15508,,HERLINWF,-86.763995,,,,,HERMITAGE AVE & LINDSLEY AVE WB,0,HERLINWF,
36.162013,,HER27AWN,-86.817397,,,,HERMAN ST & 27TH AV N,HERMAN ST & 27TH AVE N WB,0,HER27AWN,
36.26279,,OLD4AVWF,-86.705695,,,,,OLD HICKORYBLVD  & 4TH AVE EB,0,OLD4AVWF,
36.208485,,WHITONSN,-86.793982,,,,,WHITES CREEK PIKE & TONEY RD SB,0,WHITONSN,
36.094568,,H70BROSN,-86.881598,,,,HIGHWAY 70 S & BROOK HOLLOW RD,HWY 70 S & BROOK HOLLOW RD WB,0,H70BROSN,
36.179972,,MERTRUNN,-86.769035,,,,,MERIDIAN ST & TRUETLAN ST NB,0,MERTRUNN,
36.131361,,8AVDOUSF,-86.778931,,,,8TH AV S & S DOUGLAS AV,8TH AVE & DOUGLAS AVE SB,0,8AVDOUSF,
36.176888,,LEBWEWN,-86.645588,,,,,LEBANON PIKE & WEELINGTON SQ SB,0,LEBWEWN,
36.167726,,LEBDONWN,-86.663188,,,,LEBANON PK & DONELSON PK,LEBANON PIKE & DONELSON PIKE WB,0,LEBDONWN,
36.182778,,EASSETEN,-86.738046,,,,,EASTLAND AVE & SETLIFF PL EB,0,EASSETEN,
36.145658,,CHE2AEN,-86.764782,,,,,CHESTNUT ST & 2ND AVE S EB,0,CHE2AEN,
36.123872,,12ASWENF,-86.789755,,,,12TH AV S & SWEETBRIAR AV,12TH AVE S & SWEETBRIAR AVE NB,0,12ASWENF,
36.234415,,RICVAIWN,-86.774882,,,,,RICHMOND HILLS DR & VAILVIEW DR WB,0,RICVAIWN,
36.234592,,RICVAIWM,-86.775168,,,,,RICHMOND HILL DR & VAILVIEW DR WB,0,RICVAIWM,
36.059458,,BELHHINN,-86.641035,,,,,BELL RD & HICKORY HIGHLANDS DR NB,0,BELHHINN,
36.161897,,HER27AEN,-86.817498,,,,HERMAN ST & 27TH AV N,HERMAN ST & 27TH AVE N EB,0,HER27AEN,
36.079608,,COLDAVPR,-86.955657,,,,COLEY DAVIS-SHELTER-PARK N RIDE,COLEY DAVIS RD SHELTER PARK-N-RIDE,0,COLDAVPR,
36.188823,,LEBHICNM,-86.628212,,,,LEBANON PK & HICKORY HILL,LEBANON PIKE & HICKORY HILL LN NB,0,LEBHICNM,
36.145741,,CHE2AWF,-86.764971,,,,CHESTNUT ST & UNKNOWN AL,CHESTNUT ST & 2ND AVE S WB,0,CHE2AWF,
36.061857,,BELHICNM,-86.638219,,,,,BELL RD & HICKORY HIGHLANDS NB,0,BELHICNM,
36.141543,,8ACHENN,-86.778565,,,,US HWY 31 & 8TH AVE S,8TH AVE S & CHESTNUT ST NB,0,8ACHENN,
36.142163,,NXIHART,-86.762307,,,,US HWY 31 ALT & US HWY 41 ALT,HART STATION INBOUND,0,NXIHART,
36.190647,,GALGRENN,-86.745313,,,,GALLATIN AV & W GREENWOOD AV,GALLATIN PIKE & GREENWOOD AVE NB,0,GALGRENN,
36.076775,,MURDOVSF,-86.641112,,,,MURFREESBORO & DOVERBLE,MURFREESBORO PIKE & DOVER GLEN DR S,0,MURDOVSF,
36.152864,,WES18AEN,-86.796016,,,,,WEST END AVE & 18TH AVE S EB,0,WES18AEN,
36.170091,,SHE18SEN,-86.73921,,,,SHELBY AV & S 18TH ST,SHELBY AVE & S 18TH AVE EB,0,SHE18SEN,
36.295703,,GXIMYASF,-86.700551,,,,,MYATT STATION INBOUND,0,GXIMYASF,
36.188076,,CLAEDTSN,-86.821874,,,,CLARKSVILLE PK & ED TEMPLE BV,CLARKSVILLE PIKE & ED TEMPLE BLVD S,0,CLAEDTSN,
36.045659,,NOLOLDSN,-86.713452,,,,5787 NOLENSVILLE PIKE & OLD HICKORY BLVD,NOLENSVILLE PIKE & OLD HICKORY BLVD,0,NOLOLDSN,
36.075912,,H70CHIEN,-86.916299,,,,HWY 70 S & SUBDIVISION ENTRANCE,HWY 70 S & CHIMNEY HILL EB,0,H70CHIEN,
36.137287,,WED19AEN,-86.798379,,,,WEDGEWOOD & 19 AVE,WEDGEWOOD AVE & 19TH AVE S EB,0,WED19AEN,
36.11461,,HILWOONM,-86.810695,,,,,HILLSBORO PIKE & WOODMONT BLVD NB,0,HILWOONM,
36.18285,,EASSETWN,-86.737687,,,,,EASTLAND AVE & SETLIFF PL WB,0,EASSETWN,
36.193892,,NHYMANEN,-86.83568,,,,,N HYDES FERRY RD & MANCHESTER AVE EB,0,NHYMANEN,
36.105156,,HARLEANN,-86.868423,,,,HARDING PK & 7TH AV N,HARDING PIKE & LEAKE AVE NB,0,HARLEANN,
36.212173,,WHATUCWM,-86.827959,,,,,W HAMILTON RD & TUCKER RD WB,0,WHATUCWM,
36.141666,,CHE8AAEF,-86.778257,,,,EDGEHILL AV & 8TH,CHESTNUT ST & 8TH AVE S EB,0,CHE8AAEF,
36.13434,,MXOPLUSP,-86.723268,,,,,PLUS PARK STATION OUTBOUND,0,MXOPLUSP,
36.295411,,GXOMYANN,-86.700358,,,,,MYATT STATION OUTBOUND,0,GXOMYANN,
36.20505,,OPRI65NM,-86.694834,,,,PARKING LOT & DRIVEWAY,OPRY MILLS ENTERTAINMENT COURT,0,OPRI65NM,
36.231444,,CRERICWN,-86.773358,,,,,CREEKWOOD DR & RICHMOND HILL DR WB,0,CRERICWN,
36.126148,,BRACRASN,-86.766278,,,,,BRANSFORD AVE & CRAIGHEAD ST SB,0,BRACRASN,
36.152244,,CXORICHL,-86.841898,,,,CHARLOTTE AV & 46TH AV N,46TH AVE/RICHLAND PARK STATION OUTBOUND,0,CXORICHL,
36.161129,,BAT29AWN,-86.820279,,,,,BATAVIA ST & 29TH AVE N WB,0,BAT29AWN,
36.237078,,MOOCRISN,-86.773387,,,,,MOOREWOOD DR & CRISLYNNDALE DR SB,0,MOOCRISN,
36.153391,,BRO17AWN,-86.793952,,,,1692 BROADWAY AVE & 17TH AVE,BROADWAY AVE & 17TH AVE S WB,0,BRO17AWN,
